[[{"gmt": "-10", "city_name": "Anaa", "latitude": "-17.05", "country_iso2": "PF", "timezone": "Pacific/Tahiti", "geoname_id": null, "longitude": "-145.41667", "iata_code": "AAA"}, {"gmt": "10", "city_name": "Arrabury", "latitude": "-26.7", "country_iso2": "AU", "timezone": "Australia/Brisbane", "geoname_id": null, "longitude": "141.04167", "iata_code": "AAB"}, {"gmt": "2", "city_name": "El Arish", "latitude": "31.133333", "country_iso2": "EG", "timezone": "Africa/Cairo", "geoname_id": "361546", "longitude": "33.75", "iata_code": "AAC"}, {"gmt": "1", "city_name": "Annaba", "latitude": "36.821392", "country_iso2": "DZ", "timezone": "Africa/Algiers", "geoname_id": "2506999", "longitude": "7.811857", "iata_code": "AAE"}, {"gmt": "-6", "city_name": "Apalachicola", "latitude": "29.733334", "country_iso2": "US", "timezone": "America/Chicago", "geoname_id": "4167695", "longitude": "-84.98333", "iata_code": "AAF"}, {"gmt": "-3", "city_name": "Arapoti", "latitude": "-24.103611", "country_iso2": "BR", "timezone": "America/Sao_Paulo", "geoname_id": "3471795", "longitude": "-49.79", "iata_code": "AAG"}, {"gmt": "1", "city_name": "Aachen", "latitude": "50.775438", "country_iso2": "DE", "timezone": "Europe/Berlin", "geoname_id": "3247449", "longitude": "6.08151", "iata_code": "AAH"}, {"gmt": "-3", "city_name": "Arraias", "latitude": "-12.916667", "country_iso2": "BR", "timezone": "America/Araguaina", "geoname_id": null, "longitude": "-46.933334", "iata_code": "AAI"}, {"gmt": "-3", "city_name": "Awaradam", "latitude": "3.9", "country_iso2": "SR", "timezone": "America/Paramaribo", "geoname_id": null, "longitude": "-55.36667", "iata_code": "AAJ"}, {"gmt": "12", "city_name": "Aranuka", "latitude": "0.166667", "country_iso2": "KI", "timezone": "Pacific/Tarawa", "geoname_id": null, "longitude": "173.58333", "iata_code": "AAK"}, {"gmt": "1", "city_name": "Aalborg", "latitude": "57.028811", "country_iso2": "DK", "timezone": "Europe/Copenhagen", "geoname_id": "2624886", "longitude": "9.917771", "iata_code": "AAL"}, {"gmt": "2", "city_name": "Mala Mala", "latitude": "-24.8", "country_iso2": "ZA", "timezone": "Africa/Johannesburg", "geoname_id": "954955", "longitude": "31.533333", "iata_code": "AAM"}, {"gmt": "4", "city_name": "Al Ain", "latitude": "24.2075", "country_iso2": "AE", "timezone": "Asia/Dubai", "geoname_id": "292913", "longitude": "55.744722", "iata_code": "AAN"}, {"gmt": "-4", "city_name": "Anaco", "latitude": "9.431944", "country_iso2": "VE", "timezone": "America/Caracas", "geoname_id": "3486270", "longitude": "-64.46389", "iata_code": "AAO"}, {"gmt": "3", "city_name": "Anapa", "latitude": "44.9", "country_iso2": "RU", "timezone": "Europe/Moscow", "geoname_id": "582182", "longitude": "37.316666", "iata_code": "AAQ"}, {"gmt": "1", "city_name": "Aarhus", "latitude": "56.162939", "country_iso2": "DK", "timezone": "Europe/Copenhagen", "geoname_id": "2611664", "longitude": "10.203921", "iata_code": "AAR"}, {"gmt": "9", "city_name": "Apalapsili", "latitude": "-3.916667", "country_iso2": "ID", "timezone": "Asia/Jayapura", "geoname_id": null, "longitude": "139.25", "iata_code": "AAS"}, {"gmt": "8", "city_name": "Altay", "latitude": "47.750362", "country_iso2": "CN", "timezone": "Asia/Shanghai", "geoname_id": "1529651", "longitude": "88.08444", "iata_code": "AAT"}, {"gmt": "13", "city_name": "Asau", "latitude": "-13.458333", "country_iso2": "WS", "timezone": "Pacific/Apia", "geoname_id": "4035092", "longitude": "-172.6", "iata_code": "AAU"}, {"gmt": "8", "city_name": "Surallah", "latitude": "6.333333", "country_iso2": "PH", "timezone": "Asia/Manila", "geoname_id": null, "longitude": "124.76667", "iata_code": "AAV"}, {"gmt": "5", "city_name": "Abbottabad", "latitude": "34.2", "country_iso2": "PK", "timezone": "Asia/Karachi", "geoname_id": null, "longitude": "73.25", "iata_code": "AAW"}, {"gmt": "-3", "city_name": "Araxa", "latitude": "-19.568056", "country_iso2": "BR", "timezone": "America/Sao_Paulo", "geoname_id": "3471691", "longitude": "-46.92917", "iata_code": "AAX"}, {"gmt": "3", "city_name": "Al Ghaydah", "latitude": "16.19596", "country_iso2": "YE", "timezone": "Asia/Aden", "geoname_id": null, "longitude": "52.173256", "iata_code": "AAY"}, {"gmt": "-6", "city_name": "Quetzaltenango", "latitude": "14.87", "country_iso2": "GT", "timezone": "America/Guatemala", "geoname_id": "3599699", "longitude": "-91.5", "iata_code": "AAZ"}, {"gmt": "7", "city_name": "Abakan", "latitude": "53.716667", "country_iso2": "RU", "timezone": "Asia/Krasnoyarsk", "geoname_id": "1512236", "longitude": "91.5", "iata_code": "ABA"}, {"gmt": null, "city_name": "Asaba", "latitude": "51.666668", "country_iso2": "NG", "timezone": "Europe/London", "geoname_id": "2640729", "longitude": "-1.283333", "iata_code": "ABB"}, {"gmt": "1", "city_name": "Albacete", "latitude": "38.997652", "country_iso2": "ES", "timezone": "Europe/Madrid", "geoname_id": "2522258", "longitude": "-1.86007", "iata_code": "ABC"}, {"gmt": "3.30", "city_name": "Abadan", "latitude": "30.363905", "country_iso2": "IR", "timezone": "Asia/Tehran", "geoname_id": null, "longitude": "48.226597", "iata_code": "ABD"}, {"gmt": "-5", "city_name": "Allentown", "latitude": "40.651573", "country_iso2": "US", "timezone": "America/New_York", "geoname_id": "5178127", "longitude": "-75.434364", "iata_code": "ABE"}, {"gmt": "12", "city_name": "Abaiang", "latitude": "1.670833", "country_iso2": "KI", "timezone": "Pacific/Tarawa", "geoname_id": null, "longitude": "173.30417", "iata_code": "ABF"}, {"gmt": "10", "city_name": "Abingdon", "latitude": "-17.666668", "country_iso2": "AU", "timezone": "Australia/Brisbane", "geoname_id": null, "longitude": "143.2", "iata_code": "ABG"}, {"gmt": "10", "city_name": "Alpha", "latitude": "-23.65", "country_iso2": "AU", "timezone": "Australia/Brisbane", "geoname_id": null, "longitude": "146.63333", "iata_code": "ABH"}, {"gmt": "-6", "city_name": "Abilene", "latitude": "32.448736", "country_iso2": "US", "timezone": "America/Chicago", "geoname_id": "4669635", "longitude": "-99.733144", "iata_code": "ABI"}, {"gmt": null, "city_name": "Abidjan", "latitude": "5.254879", "country_iso2": "CI", "timezone": "Africa/Abidjan", "geoname_id": "2293538", "longitude": "-3.933015", "iata_code": "ABJ"}, {"gmt": "3", "city_name": "Kabri Dar", "latitude": "6.733889", "country_iso2": "ET", "timezone": "Africa/Addis_Ababa", "geoname_id": null, "longitude": "44.26611", "iata_code": "ABK"}, {"gmt": "-9", "city_name": "Ambler", "latitude": "67.0875", "country_iso2": "US", "timezone": "America/Anchorage", "geoname_id": null, "longitude": "-157.84584", "iata_code": "ABL"}, {"gmt": "10", "city_name": "Bamaga", "latitude": "-10.942619", "country_iso2": "AU", "timezone": "Australia/Brisbane", "geoname_id": "2177023", "longitude": "142.45033", "iata_code": "ABM"}, {"gmt": "-3", "city_name": "Albina", "latitude": "5.5", "country_iso2": "SR", "timezone": "America/Paramaribo", "geoname_id": "3384792", "longitude": "-54.083332", "iata_code": "ABN"}, {"gmt": null, "city_name": "Aboisso", "latitude": "5.433333", "country_iso2": "CI", "timezone": "Africa/Abidjan", "geoname_id": null, "longitude": "-3.216667", "iata_code": "ABO"}, {"gmt": "10", "city_name": "Atkamba", "latitude": "-6.066667", "country_iso2": "PG", "timezone": "Pacific/Port_Moresby", "geoname_id": null, "longitude": "141.1", "iata_code": "ABP"}, {"gmt": "-7", "city_name": "Albuquerque", "latitude": "35.049625", "country_iso2": "US", "timezone": "America/Denver", "geoname_id": "5454711", "longitude": "-106.617195", "iata_code": "ABQ"}, {"gmt": "-6", "city_name": "Aberdeen", "latitude": "45.4525", "country_iso2": "US", "timezone": "America/Chicago", "geoname_id": "5225857", "longitude": "-98.42611", "iata_code": "ABR"}, {"gmt": "2", "city_name": "Abu Simbel", "latitude": "22.367567", "country_iso2": "EG", "timezone": "Africa/Cairo", "geoname_id": "362041", "longitude": "31.609774", "iata_code": "ABS"}, {"gmt": "3", "city_name": "Al-Baha", "latitude": "20.29401", "country_iso2": "SA", "timezone": "Asia/Riyadh", "geoname_id": null, "longitude": "41.64002", "iata_code": "ABT"}, {"gmt": "8", "city_name": "Atambua", "latitude": "-9.133333", "country_iso2": "ID", "timezone": "Asia/Makassar", "geoname_id": null, "longitude": "124.88333", "iata_code": "ABU"}, {"gmt": "1", "city_name": "Abuja", "latitude": "9.004614", "country_iso2": "NG", "timezone": "Africa/Lagos", "geoname_id": null, "longitude": "7.270447", "iata_code": "ABV"}, {"gmt": "10", "city_name": "Abau", "latitude": "-10.183333", "country_iso2": "PG", "timezone": "Pacific/Port_Moresby", "geoname_id": null, "longitude": "148.7", "iata_code": "ABW"}, {"gmt": "10", "city_name": "Albury", "latitude": "-36.069626", "country_iso2": "AU", "timezone": "Australia/Sydney", "geoname_id": "2178174", "longitude": "146.95453", "iata_code": "ABX"}, {"gmt": "-5", "city_name": "Albany", "latitude": "31.578507", "country_iso2": "US", "timezone": "America/New_York", "geoname_id": "4179320", "longitude": "-84.155741", "iata_code": "ABY"}, {"gmt": null, "city_name": "Aberdeen", "latitude": "57.147492", "country_iso2": "GB", "timezone": "Europe/London", "geoname_id": "2657832", "longitude": "-2.095397", "iata_code": "ABZ"}, {"gmt": "-6", "city_name": "Acapulco", "latitude": "16.762403", "country_iso2": "MX", "timezone": "America/Mexico_City", "geoname_id": "3533462", "longitude": "-99.75459", "iata_code": "ACA"}, {"gmt": "-5", "city_name": "Bellaire", "latitude": "44.983334", "country_iso2": "US", "timezone": "America/Detroit", "geoname_id": "4985583", "longitude": "-85.21667", "iata_code": "ACB"}, {"gmt": null, "city_name": "Accra", "latitude": "5.60737", "country_iso2": "GH", "timezone": "Africa/Accra", "geoname_id": "2306104", "longitude": "-0.171769", "iata_code": "ACC"}, {"gmt": "-5", "city_name": "Acandi", "latitude": "8.516667", "country_iso2": "CO", "timezone": "America/Bogota", "geoname_id": "3665580", "longitude": "-77.3", "iata_code": "ACD"}, {"gmt": null, "city_name": "Arrecife", "latitude": "28.950668", "country_iso2": "ES", "timezone": "Atlantic/Canary", "geoname_id": "6355013", "longitude": "-13.609059", "iata_code": "ACE"}, {"gmt": "1", "city_name": "Altenrhein", "latitude": "47.483334", "country_iso2": "CH", "timezone": "Europe/Zurich", "geoname_id": "2661775", "longitude": "9.566667", "iata_code": "ACH"}, {"gmt": null, "city_name": "Alderney", "latitude": "49.709347", "country_iso2": "GG", "timezone": "Europe/London", "geoname_id": "6692041", "longitude": "-2.215369", "iata_code": "ACI"}, {"gmt": "5.30", "city_name": "Anuradhapura", "latitude": "8.35", "country_iso2": "LK", "timezone": "Asia/Colombo", "geoname_id": "1251081", "longitude": "80.38333", "iata_code": "ACJ"}, {"gmt": "-5", "city_name": "Nantucket", "latitude": "41.256668", "country_iso2": "US", "timezone": "America/New_York", "geoname_id": "4944903", "longitude": "-70.05972", "iata_code": "ACK"}, {"gmt": "-5", "city_name": "Aguaclara", "latitude": "4.75", "country_iso2": "CO", "timezone": "America/Bogota", "geoname_id": null, "longitude": "-73", "iata_code": "ACL"}, {"gmt": "-5", "city_name": "Arica", "latitude": "-2", "country_iso2": "CO", "timezone": "America/Bogota", "geoname_id": null, "longitude": "-71.833336", "iata_code": "ACM"}, {"gmt": "-6", "city_name": "Acuna", "latitude": "29.3", "country_iso2": "MX", "timezone": "America/Matamoros", "geoname_id": "3992619", "longitude": "-100.916664", "iata_code": "ACN"}, {"gmt": "3.30", "city_name": "Sahand", "latitude": "37.347244", "country_iso2": "IR", "timezone": "Asia/Tehran", "geoname_id": null, "longitude": "46.145115", "iata_code": "ACP"}, {"gmt": "-5", "city_name": "Araracuara", "latitude": "-0.383333", "country_iso2": "CO", "timezone": "America/Bogota", "geoname_id": null, "longitude": "-72.3", "iata_code": "ACR"}, {"gmt": "7", "city_name": "Achinsk", "latitude": "56.266666", "country_iso2": "RU", "timezone": "Asia/Krasnoyarsk", "geoname_id": null, "longitude": "90.566666", "iata_code": "ACS"}, {"gmt": "-6", "city_name": "Waco", "latitude": "31.549333", "country_iso2": "US", "timezone": "America/Chicago", "geoname_id": "4739526", "longitude": "-97.14667", "iata_code": "ACT"}, {"gmt": "-5", "city_name": "Achutupo", "latitude": "9.576389", "country_iso2": "PA", "timezone": "America/Panama", "geoname_id": null, "longitude": "-79.72444", "iata_code": "ACU"}, {"gmt": "-8", "city_name": "Arcata", "latitude": "40.970913", "country_iso2": "US", "timezone": "America/Los_Angeles", "geoname_id": "5558953", "longitude": "-124.106926", "iata_code": "ACV"}, {"gmt": "8", "city_name": "Xingyi", "latitude": "25.085556", "country_iso2": "CN", "timezone": "Asia/Shanghai", "geoname_id": null, "longitude": "104.95944", "iata_code": "ACX"}, {"gmt": "3.30", "city_name": "Zabol", "latitude": "31.087694", "country_iso2": "IR", "timezone": "Asia/Tehran", "geoname_id": null, "longitude": "61.542244", "iata_code": "ACZ"}, {"gmt": "3", "city_name": "Adana", "latitude": "37", "country_iso2": "TR", "timezone": "Europe/Istanbul", "geoname_id": "325363", "longitude": "35.321333", "iata_code": "ADA"}, {"gmt": "10", "city_name": "Andakombe", "latitude": "-7.133333", "country_iso2": "PG", "timezone": "Pacific/Port_Moresby", "geoname_id": "2100827", "longitude": "145.73334", "iata_code": "ADC"}, {"gmt": "3", "city_name": "Addis Ababa", "latitude": "8.983759", "country_iso2": "ET", "timezone": "Africa/Addis_Ababa", "geoname_id": "344979", "longitude": "38.7959", "iata_code": "ADD"}, {"gmt": "3", "city_name": "Aden", "latitude": "12.826116", "country_iso2": "YE", "timezone": "Asia/Aden", "geoname_id": "415189", "longitude": "45.037537", "iata_code": "ADE"}, {"gmt": "3", "city_name": "Adiyaman", "latitude": "37.75", "country_iso2": "TR", "timezone": "Europe/Istanbul", "geoname_id": "325330", "longitude": "38.266666", "iata_code": "ADF"}, {"gmt": "-5", "city_name": "Adrian", "latitude": "41.9", "country_iso2": "US", "timezone": "America/Indiana/Indianapolis", "geoname_id": "4917712", "longitude": "-84.03333", "iata_code": "ADG"}, {"gmt": "9", "city_name": "Aldan", "latitude": "58.6", "country_iso2": "RU", "timezone": "Asia/Yakutsk", "geoname_id": null, "longitude": "125.4", "iata_code": "ADH"}, {"gmt": "2", "city_name": "Arandis", "latitude": "-22.4", "country_iso2": "NA", "timezone": "Africa/Windhoek", "geoname_id": "3352844", "longitude": "15", "iata_code": "ADI"}, {"gmt": "-10", "city_name": "Adak Island", "latitude": "51.88278", "country_iso2": "US", "timezone": "America/Adak", "geoname_id": null, "longitude": "-176.64473", "iata_code": "ADK"}, {"gmt": "9.30", "city_name": "Adelaide", "latitude": "-34.928621", "country_iso2": "AU", "timezone": "Australia/Adelaide", "geoname_id": "2078025", "longitude": "138.599959", "iata_code": "ADL"}, {"gmt": "-6", "city_name": "Ardmore", "latitude": "34.303055", "country_iso2": "US", "timezone": "America/Chicago", "geoname_id": "4529469", "longitude": "-97.01945", "iata_code": "ADM"}, {"gmt": "-5", "city_name": "Andes", "latitude": "5.666667", "country_iso2": "CO", "timezone": "America/Bogota", "geoname_id": "3674962", "longitude": "-75.933334", "iata_code": "ADN"}, {"gmt": "9.30", "city_name": "Andamooka", "latitude": "-31.016666", "country_iso2": "AU", "timezone": "Australia/Adelaide", "geoname_id": null, "longitude": "137.15", "iata_code": "ADO"}, {"gmt": "5.30", "city_name": "Ampara", "latitude": "7.336389", "country_iso2": "LK", "timezone": "Asia/Colombo", "geoname_id": "1251081", "longitude": "81.625275", "iata_code": "ADP"}, {"gmt": "-9", "city_name": "Kodiak", "latitude": "57.79", "country_iso2": "US", "timezone": "America/Anchorage", "geoname_id": "5866583", "longitude": "-152.407222", "iata_code": "ADQ"}, {"gmt": "-5", "city_name": "Andrews", "latitude": "33.45", "country_iso2": "US", "timezone": "America/New_York", "geoname_id": "4588718", "longitude": "-79.566666", "iata_code": "ADR"}, {"gmt": "-6", "city_name": "Ada", "latitude": "34.8", "country_iso2": "US", "timezone": "America/Chicago", "geoname_id": "4529096", "longitude": "-96.666664", "iata_code": "ADT"}, {"gmt": "3.30", "city_name": "Ardabil", "latitude": "38.323826", "country_iso2": "IR", "timezone": "Asia/Tehran", "geoname_id": null, "longitude": "48.42125", "iata_code": "ADU"}, {"gmt": "-5", "city_name": "Camp Springs", "latitude": "38.816666", "country_iso2": "US", "timezone": "America/New_York", "geoname_id": null, "longitude": "-76.86667", "iata_code": "ADW"}, {"gmt": null, "city_name": "St Andrews", "latitude": "56.36667", "country_iso2": "GB", "timezone": "Europe/London", "geoname_id": "2644581", "longitude": "-2.866667", "iata_code": "ADX"}, {"gmt": "2", "city_name": "Alldays", "latitude": "-22.666668", "country_iso2": "ZA", "timezone": "Africa/Johannesburg", "geoname_id": "981827", "longitude": "29.05", "iata_code": "ADY"}, {"gmt": "-5", "city_name": "San Andres Island", "latitude": "12.586047", "country_iso2": "CO", "timezone": "America/Bogota", "geoname_id": "3670218", "longitude": "-81.70221", "iata_code": "ADZ"}, {"gmt": "12", "city_name": "Abemama Atoll", "latitude": "0.483333", "country_iso2": "KI", "timezone": "Pacific/Tarawa", "geoname_id": null, "longitude": "173.85", "iata_code": "AEA"}, {"gmt": "8", "city_name": "Baise", "latitude": "23.71947", "country_iso2": "CN", "timezone": "Asia/Shanghai", "geoname_id": "1794330", "longitude": "106.96777", "iata_code": "AEB"}, {"gmt": "-9", "city_name": "Aleneva", "latitude": "58.033333", "country_iso2": "US", "timezone": "America/Anchorage", "geoname_id": "5879155", "longitude": "-152.9", "iata_code": "AED"}, {"gmt": "3", "city_name": "Adareil", "latitude": "10.05667", "country_iso2": "SS", "timezone": "Africa/Juba", "geoname_id": null, "longitude": "32.96096", "iata_code": "AEE"}, {"gmt": "7", "city_name": "Aek Godang", "latitude": "1.399722", "country_iso2": "ID", "timezone": "Asia/Jakarta", "geoname_id": "1214618", "longitude": "99.416664", "iata_code": "AEG"}, {"gmt": "1", "city_name": "Abeche", "latitude": "13.851389", "country_iso2": "TD", "timezone": "Africa/Ndjamena", "geoname_id": null, "longitude": "20.850834", "iata_code": "AEH"}, {"gmt": "1", "city_name": "Algeciras", "latitude": "36.1289", "country_iso2": "ES", "timezone": "Europe/Madrid", "geoname_id": "2522013", "longitude": "-5.441301", "iata_code": "AEI"}, {"gmt": "10", "city_name": "Aseki", "latitude": "-7.366667", "country_iso2": "PG", "timezone": "Pacific/Port_Moresby", "geoname_id": "2100468", "longitude": "146.28334", "iata_code": "AEK"}], [{"gmt": "-6", "city_name": "Albert Lea", "latitude": "43.65", "country_iso2": "US", "timezone": "America/Chicago", "geoname_id": "5016024", "longitude": "-93.36667", "iata_code": "AEL"}, {"gmt": null, "city_name": "Aioun El Atrouss", "latitude": "16.709167", "country_iso2": "MR", "timezone": "Africa/Nouakchott", "geoname_id": null, "longitude": "-9.635556", "iata_code": "AEO"}, {"gmt": "3", "city_name": "Sochi", "latitude": "43.44884", "country_iso2": "RU", "timezone": "Europe/Moscow", "geoname_id": "491422", "longitude": "39.941105", "iata_code": "AER"}, {"gmt": "1", "city_name": "Aalesund", "latitude": "62.559643", "country_iso2": "NO", "timezone": "Europe/Oslo", "geoname_id": "3163392", "longitude": "6.116605", "iata_code": "AES"}, {"gmt": "-9", "city_name": "Allakaket", "latitude": "66.56167", "country_iso2": "US", "timezone": "America/Anchorage", "geoname_id": "5879223", "longitude": "-152.65834", "iata_code": "AET"}, {"gmt": "3.30", "city_name": "Abu Musa", "latitude": "25.8875", "country_iso2": "IR", "timezone": "Asia/Tehran", "geoname_id": null, "longitude": "55.041668", "iata_code": "AEU"}, {"gmt": "-6", "city_name": "Alexandria", "latitude": "31.311294", "country_iso2": "US", "timezone": "America/Chicago", "geoname_id": "4314550", "longitude": "-92.445137", "iata_code": "AEX"}, {"gmt": null, "city_name": "Akureyri", "latitude": "65.654564", "country_iso2": "IS", "timezone": "Atlantic/Reykjavik", "geoname_id": "2633274", "longitude": "-18.075068", "iata_code": "AEY"}, {"gmt": "-3", "city_name": "San Rafael", "latitude": "-34.58917", "country_iso2": "AR", "timezone": "America/Argentina/Mendoza", "geoname_id": "3836669", "longitude": "-68.40056", "iata_code": "AFA"}, {"gmt": "2", "city_name": "Port Alfred", "latitude": "-33.583332", "country_iso2": "ZA", "timezone": "Africa/Johannesburg", "geoname_id": "964432", "longitude": "26.883333", "iata_code": "AFD"}, {"gmt": "-5", "city_name": "Amalfi", "latitude": "6.916667", "country_iso2": "CO", "timezone": "America/Bogota", "geoname_id": "3674962", "longitude": "-75.066666", "iata_code": "AFI"}, {"gmt": "-4", "city_name": "Alta Floresta", "latitude": "-9.872456", "country_iso2": "BR", "timezone": "America/Cuiaba", "geoname_id": "6316343", "longitude": "-56.104767", "iata_code": "AFL"}, {"gmt": "-5", "city_name": "Jaffrey", "latitude": "42.833332", "country_iso2": "US", "timezone": "America/New_York", "geoname_id": "5088061", "longitude": "-72.066666", "iata_code": "AFN"}, {"gmt": "-7", "city_name": "Afton", "latitude": "42.733334", "country_iso2": "US", "timezone": "America/Denver", "geoname_id": "5828648", "longitude": "-110.933334", "iata_code": "AFO"}, {"gmt": "10", "city_name": "Afore", "latitude": "-9.133333", "country_iso2": "PG", "timezone": "Pacific/Port_Moresby", "geoname_id": "2101332", "longitude": "148.38333", "iata_code": "AFR"}, {"gmt": "5", "city_name": "Zarafshan", "latitude": "41.61361", "country_iso2": "UZ", "timezone": "Asia/Samarkand", "geoname_id": null, "longitude": "64.233055", "iata_code": "AFS"}, {"gmt": "11", "city_name": "Afutara", "latitude": "-9.2", "country_iso2": "SB", "timezone": "Pacific/Guadalcanal", "geoname_id": null, "longitude": "160.85", "iata_code": "AFT"}, {"gmt": "3", "city_name": "Afyon", "latitude": "38.733334", "country_iso2": "TR", "timezone": "Europe/Istanbul", "geoname_id": "325303", "longitude": "30.6", "iata_code": "AFY"}, {"gmt": "3.30", "city_name": "Sabzevar", "latitude": "36.171513", "country_iso2": "IR", "timezone": "Asia/Tehran", "geoname_id": null, "longitude": "57.60332", "iata_code": "AFZ"}, {"gmt": null, "city_name": "Agadir", "latitude": "30.378326", "country_iso2": "MA", "timezone": "Africa/Casablanca", "geoname_id": "2561668", "longitude": "-9.555895", "iata_code": "AGA"}, {"gmt": "9", "city_name": "Anggi", "latitude": "-1.383333", "country_iso2": "ID", "timezone": "Asia/Jayapura", "geoname_id": "1636308", "longitude": "133.86667", "iata_code": "AGD"}, {"gmt": "1", "city_name": "Wangerooge", "latitude": "53.783333", "country_iso2": "DE", "timezone": "Europe/Berlin", "geoname_id": "2814266", "longitude": "7.916667", "iata_code": "AGE"}, {"gmt": "1", "city_name": "Agen", "latitude": "44.17361", "country_iso2": "FR", "timezone": "Europe/Paris", "geoname_id": "3038634", "longitude": "0.598611", "iata_code": "AGF"}, {"gmt": "10", "city_name": "Angoram", "latitude": "-4.168611", "country_iso2": "PG", "timezone": "Pacific/Port_Moresby", "geoname_id": "2100765", "longitude": "144.07388", "iata_code": "AGG"}, {"gmt": "1", "city_name": "Angelholm", "latitude": "56.2432", "country_iso2": "SE", "timezone": "Europe/Stockholm", "geoname_id": "2725900", "longitude": "12.861509", "iata_code": "AGH"}, {"gmt": "-3", "city_name": "Wageningen", "latitude": "5.833333", "country_iso2": "SR", "timezone": "America/Paramaribo", "geoname_id": null, "longitude": "-56.833332", "iata_code": "AGI"}, {"gmt": "9", "city_name": "Aguni", "latitude": "26.589722", "country_iso2": "JP", "timezone": "Asia/Tokyo", "geoname_id": "1856035", "longitude": "127.23805", "iata_code": "AGJ"}, {"gmt": "10", "city_name": "Kagua", "latitude": "-6.403333", "country_iso2": "PG", "timezone": "Pacific/Port_Moresby", "geoname_id": "2095091", "longitude": "143.84666", "iata_code": "AGK"}, {"gmt": "10", "city_name": "Wanigela", "latitude": "-9.340278", "country_iso2": "PG", "timezone": "Pacific/Port_Moresby", "geoname_id": "2132313", "longitude": "149.15527", "iata_code": "AGL"}, {"gmt": "-3", "city_name": "Tasiilaq", "latitude": "65.6", "country_iso2": "GL", "timezone": "America/Godthab", "geoname_id": "3424607", "longitude": "-37.683334", "iata_code": "AGM"}, {"gmt": "-9", "city_name": "Angoon", "latitude": "57.503887", "country_iso2": "US", "timezone": "America/Juneau", "geoname_id": "5844374", "longitude": "-134.58333", "iata_code": "AGN"}, {"gmt": "-6", "city_name": "Magnolia", "latitude": "33.266666", "country_iso2": "US", "timezone": "America/Chicago", "geoname_id": "4115181", "longitude": "-93.23333", "iata_code": "AGO"}, {"gmt": "1", "city_name": "Malaga", "latitude": "36.719648", "country_iso2": "ES", "timezone": "Europe/Madrid", "geoname_id": "2514256", "longitude": "-4.420016", "iata_code": "AGP"}, {"gmt": "2", "city_name": "Agrinion", "latitude": "38.604168", "country_iso2": "GR", "timezone": "Europe/Athens", "geoname_id": "252946", "longitude": "21.351944", "iata_code": "AGQ"}, {"gmt": "5.30", "city_name": "Agra", "latitude": "27.158333", "country_iso2": "IN", "timezone": "Asia/Kolkata", "geoname_id": "1279261", "longitude": "77.962776", "iata_code": "AGR"}, {"gmt": "-5", "city_name": "Augusta", "latitude": "33.474246", "country_iso2": "US", "timezone": "America/New_York", "geoname_id": "4180531", "longitude": "-82.00967", "iata_code": "AGS"}, {"gmt": "-4", "city_name": "Ciudad Del Este", "latitude": "-25.5", "country_iso2": "PY", "timezone": "America/Asuncion", "geoname_id": "3439101", "longitude": "-54.833332", "iata_code": "AGT"}, {"gmt": "-6", "city_name": "Aguascalientes", "latitude": "21.701416", "country_iso2": "MX", "timezone": "America/Mexico_City", "geoname_id": "4019233", "longitude": "-102.31374", "iata_code": "AGU"}, {"gmt": "-4", "city_name": "Acarigua", "latitude": "9.552222", "country_iso2": "VE", "timezone": "America/Caracas", "geoname_id": null, "longitude": "-69.23333", "iata_code": "AGV"}, {"gmt": "10", "city_name": "Agnew", "latitude": "-12.15", "country_iso2": "AU", "timezone": "Australia/Brisbane", "geoname_id": "2144209", "longitude": "142.15", "iata_code": "AGW"}, {"gmt": "5.30", "city_name": "Agatti Island", "latitude": "10.828967", "country_iso2": "IN", "timezone": "Asia/Kolkata", "geoname_id": null, "longitude": "72.17987", "iata_code": "AGX"}, {"gmt": "2", "city_name": "Aggeneys", "latitude": "-29.05", "country_iso2": "ZA", "timezone": "Africa/Johannesburg", "geoname_id": null, "longitude": "18.85", "iata_code": "AGZ"}, {"gmt": "3", "city_name": "Abha", "latitude": "18.23429", "country_iso2": "SA", "timezone": "Asia/Riyadh", "geoname_id": "110690", "longitude": "42.657574", "iata_code": "AHB"}, {"gmt": "-8", "city_name": "Herlong", "latitude": "40.15", "country_iso2": "US", "timezone": "America/Los_Angeles", "geoname_id": "5565015", "longitude": "-120.13333", "iata_code": "AHC"}, {"gmt": "-10", "city_name": "Ahe", "latitude": "-14.428056", "country_iso2": "PF", "timezone": "Pacific/Tahiti", "geoname_id": null, "longitude": "-146.25694", "iata_code": "AHE"}, {"gmt": "-6", "city_name": "Arapahoe", "latitude": "40.3", "country_iso2": "US", "timezone": "America/Chicago", "geoname_id": "5071348", "longitude": "-99.9", "iata_code": "AHF"}, {"gmt": "-6", "city_name": "Amery", "latitude": "45.3", "country_iso2": "US", "timezone": "America/Chicago", "geoname_id": "5037649", "longitude": "-92.35", "iata_code": "AHH"}, {"gmt": "9", "city_name": "Amahai", "latitude": "-3.333333", "country_iso2": "ID", "timezone": "Asia/Jayapura", "geoname_id": "1651531", "longitude": "128.91667", "iata_code": "AHI"}, {"gmt": "-4", "city_name": "Aishalton", "latitude": "2.483333", "country_iso2": "GY", "timezone": "America/Guyana", "geoname_id": null, "longitude": "-59.316666", "iata_code": "AHL"}, {"gmt": "-8", "city_name": "Ashland", "latitude": null, "country_iso2": "US", "timezone": "America/Los_Angeles", "geoname_id": null, "longitude": null, "iata_code": "AHM"}, {"gmt": "-5", "city_name": "Athens", "latitude": "33.95195", "country_iso2": "US", "timezone": "America/New_York", "geoname_id": "4180386", "longitude": "-83.32472", "iata_code": "AHN"}, {"gmt": "1", "city_name": "Alghero", "latitude": "40.630405", "country_iso2": "IT", "timezone": "Europe/Rome", "geoname_id": "3183284", "longitude": "8.295891", "iata_code": "AHO"}, {"gmt": "-6", "city_name": "Ahuas", "latitude": "15.441667", "country_iso2": "HN", "timezone": "America/Tegucigalpa", "geoname_id": null, "longitude": "-84.425", "iata_code": "AHS"}, {"gmt": "-10", "city_name": "Amchitka", "latitude": "51.5", "country_iso2": "US", "timezone": "America/Adak", "geoname_id": null, "longitude": "179", "iata_code": "AHT"}, {"gmt": null, "city_name": "Al Hoceima", "latitude": "35.17972", "country_iso2": "MA", "timezone": "Africa/Casablanca", "geoname_id": "2558545", "longitude": "-3.836944", "iata_code": "AHU"}, {"gmt": "4", "city_name": "Saih Rawl", "latitude": "31.34292", "country_iso2": "OM", "timezone": "Asia/Muscat", "geoname_id": null, "longitude": "48.74668", "iata_code": "AHW"}, {"gmt": "3", "city_name": "Ambatolahy", "latitude": "-20.016666", "country_iso2": "MG", "timezone": "Indian/Antananarivo", "geoname_id": null, "longitude": "45.533333", "iata_code": "AHY"}, {"gmt": "1", "city_name": "Alpe D Huez", "latitude": "45.083332", "country_iso2": "FR", "timezone": "Europe/Paris", "geoname_id": "3008406", "longitude": "6.083333", "iata_code": "AHZ"}, {"gmt": "-7", "city_name": "Alliance", "latitude": "42.051666", "country_iso2": "US", "timezone": "America/Denver", "geoname_id": "5693164", "longitude": "-102.80666", "iata_code": "AIA"}, {"gmt": "-9", "city_name": "Anita Bay", "latitude": "56.233334", "country_iso2": "US", "timezone": "America/Sitka", "geoname_id": null, "longitude": "-132.38333", "iata_code": "AIB"}, {"gmt": "12", "city_name": "Airok", "latitude": "7.5", "country_iso2": "MH", "timezone": "Pacific/Majuro", "geoname_id": null, "longitude": "170.83333", "iata_code": "AIC"}, {"gmt": "-5", "city_name": "Anderson", "latitude": "40.166668", "country_iso2": "US", "timezone": "America/Indiana/Indianapolis", "geoname_id": "4917592", "longitude": "-85.683334", "iata_code": "AID"}, {"gmt": "10", "city_name": "Aiome", "latitude": "-5.166667", "country_iso2": "PG", "timezone": "Pacific/Port_Moresby", "geoname_id": null, "longitude": "144.66667", "iata_code": "AIE"}, {"gmt": "-3", "city_name": "Assis", "latitude": "-22.666668", "country_iso2": "BR", "timezone": "America/Sao_Paulo", "geoname_id": "3471374", "longitude": "-50.416668", "iata_code": "AIF"}, {"gmt": "1", "city_name": "Yalinga", "latitude": "6.516667", "country_iso2": "CF", "timezone": "Africa/Bangui", "geoname_id": null, "longitude": "23.25", "iata_code": "AIG"}, {"gmt": "10", "city_name": "Aiambak", "latitude": "-7.348611", "country_iso2": "PG", "timezone": "Pacific/Port_Moresby", "geoname_id": "2101258", "longitude": "141.26639", "iata_code": "AIH"}, {"gmt": "3", "city_name": "Alisabieh", "latitude": "11.15", "country_iso2": "DJ", "timezone": "Africa/Djibouti", "geoname_id": null, "longitude": "42.716667", "iata_code": "AII"}, {"gmt": "-5", "city_name": "Aiken", "latitude": "33.566666", "country_iso2": "US", "timezone": "America/New_York", "geoname_id": "4575352", "longitude": "-81.71667", "iata_code": "AIK"}, {"gmt": "-5", "city_name": "Ailigandi", "latitude": "9.25", "country_iso2": "PA", "timezone": "America/Panama", "geoname_id": null, "longitude": "-78.083336", "iata_code": "AIL"}, {"gmt": "12", "city_name": "Ailuk Island", "latitude": "10.2", "country_iso2": "MH", "timezone": "Pacific/Majuro", "geoname_id": null, "longitude": "169.98334", "iata_code": "AIM"}, {"gmt": "-9", "city_name": "Wainwright", "latitude": "70.63333", "country_iso2": "US", "timezone": "America/Anchorage", "geoname_id": "5877543", "longitude": "-160.03334", "iata_code": "AIN"}, {"gmt": "-6", "city_name": "Atlantic", "latitude": "41.4", "country_iso2": "US", "timezone": "America/Chicago", "geoname_id": "5074472", "longitude": "-95.01667", "iata_code": "AIO"}, {"gmt": "12", "city_name": "Ailinglapalap Island", "latitude": "7.266667", "country_iso2": "MH", "timezone": "Pacific/Majuro", "geoname_id": null, "longitude": "168.81667", "iata_code": "AIP"}, {"gmt": "-4", "city_name": "Aripuana", "latitude": "-10.25", "country_iso2": "BR", "timezone": "America/Cuiaba", "geoname_id": null, "longitude": "-59.38333", "iata_code": "AIR"}, {"gmt": "12", "city_name": "Arorae Island", "latitude": "-2.65", "country_iso2": "KI", "timezone": "Pacific/Tarawa", "geoname_id": null, "longitude": "176.83333", "iata_code": "AIS"}, {"gmt": "-10", "city_name": "Aitutaki", "latitude": "-18.829443", "country_iso2": "CK", "timezone": "Pacific/Rarotonga", "geoname_id": null, "longitude": "-159.767", "iata_code": "AIT"}, {"gmt": "-10", "city_name": "Atiu Island", "latitude": "-20.033333", "country_iso2": "CK", "timezone": "Pacific/Rarotonga", "geoname_id": null, "longitude": "-158.1", "iata_code": "AIU"}, {"gmt": "-6", "city_name": "Aliceville", "latitude": "33.13333", "country_iso2": "US", "timezone": "America/Chicago", "geoname_id": "4829885", "longitude": "-88.15", "iata_code": "AIV"}, {"gmt": "2", "city_name": "Ai-ais", "latitude": "-27.983334", "country_iso2": "NA", "timezone": "Africa/Windhoek", "geoname_id": null, "longitude": "17.583332", "iata_code": "AIW"}, {"gmt": "-5", "city_name": "Atlantic City", "latitude": "39.36", "country_iso2": "US", "timezone": "America/New_York", "geoname_id": "4500546", "longitude": "-74.45722", "iata_code": "AIY"}, {"gmt": "-6", "city_name": "Kaiser", "latitude": "38.09833", "country_iso2": "US", "timezone": "America/Chicago", "geoname_id": "4402040", "longitude": "-92.54722", "iata_code": "AIZ"}, {"gmt": "1", "city_name": "Ajaccio", "latitude": "41.91987", "country_iso2": "FR", "timezone": "Europe/Paris", "geoname_id": "3038334", "longitude": "8.794013", "iata_code": "AJA"}, {"gmt": "3", "city_name": "Sakaka Al Jouf", "latitude": "29.788668", "country_iso2": "SA", "timezone": "Asia/Riyadh", "geoname_id": null, "longitude": "40.101486", "iata_code": "AJF"}, {"gmt": "3", "city_name": "Agri", "latitude": "39.65", "country_iso2": "TR", "timezone": "Europe/Istanbul", "geoname_id": "309647", "longitude": "43.025", "iata_code": "AJI"}, {"gmt": null, "city_name": "Akjoujt", "latitude": "19.730556", "country_iso2": "MR", "timezone": "Africa/Nouakchott", "geoname_id": null, "longitude": "-14.374444", "iata_code": "AJJ"}, {"gmt": "3.30", "city_name": "Araak", "latitude": "34.13333", "country_iso2": "IR", "timezone": "Asia/Tehran", "geoname_id": "7431358", "longitude": "49.833332", "iata_code": "AJK"}, {"gmt": "5.30", "city_name": "Aizawl", "latitude": "23.838985", "country_iso2": "IN", "timezone": "Asia/Kolkata", "geoname_id": null, "longitude": "92.62482", "iata_code": "AJL"}, {"gmt": "3", "city_name": "Anjouan", "latitude": "-12.126389", "country_iso2": "KM", "timezone": "Indian/Comoro", "geoname_id": null, "longitude": "44.42972", "iata_code": "AJN"}, {"gmt": "1", "city_name": "Arvidsjaur", "latitude": "65.59139", "country_iso2": "SE", "timezone": "Europe/Stockholm", "geoname_id": "2725136", "longitude": "19.285557", "iata_code": "AJR"}, {"gmt": "-7", "city_name": "Abreojos", "latitude": "26.833332", "country_iso2": "MX", "timezone": "America/Mazatlan", "geoname_id": null, "longitude": "-113.666664", "iata_code": "AJS"}, {"gmt": "-3", "city_name": "Aracaju", "latitude": "-10.987206", "country_iso2": "BR", "timezone": "America/Maceio", "geoname_id": "3471872", "longitude": "-37.072792", "iata_code": "AJU"}, {"gmt": "1", "city_name": "Agades", "latitude": "16.964167", "country_iso2": "NE", "timezone": "Africa/Niamey", "geoname_id": null, "longitude": "7.993056", "iata_code": "AJY"}, {"gmt": "8", "city_name": "Ankang", "latitude": "32.7091", "country_iso2": "CN", "timezone": "Asia/Shanghai", "geoname_id": "1789065", "longitude": "108.936", "iata_code": "AKA"}, {"gmt": "-10", "city_name": "Atka", "latitude": "52.21722", "country_iso2": "US", "timezone": "America/Adak", "geoname_id": "5879729", "longitude": "-174.20084", "iata_code": "AKB"}, {"gmt": "5.30", "city_name": "Akola", "latitude": "20.666668", "country_iso2": "IN", "timezone": "Asia/Kolkata", "geoname_id": null, "longitude": "77.083336", "iata_code": "AKD"}, {"gmt": "1", "city_name": "Akieni", "latitude": "-1.172222", "country_iso2": "GA", "timezone": "Africa/Libreville", "geoname_id": null, "longitude": "13.916667", "iata_code": "AKE"}, {"gmt": "2", "city_name": "Kufrah", "latitude": "24.2", "country_iso2": "LY", "timezone": "Africa/Tripoli", "geoname_id": null, "longitude": "23.333332", "iata_code": "AKF"}, {"gmt": "10", "city_name": "Anguganak", "latitude": "-3.633333", "country_iso2": "PG", "timezone": "Pacific/Port_Moresby", "geoname_id": null, "longitude": "142.01666", "iata_code": "AKG"}, {"gmt": "3", "city_name": "Al Kharj", "latitude": "24.063334", "country_iso2": "SA", "timezone": "Asia/Riyadh", "geoname_id": null, "longitude": "47.580555", "iata_code": "AKH"}, {"gmt": "-9", "city_name": "Akiak", "latitude": "60.905556", "country_iso2": "US", "timezone": "America/Anchorage", "geoname_id": "5878993", "longitude": "-161.22333", "iata_code": "AKI"}], [{"gmt": "9", "city_name": "Asahikawa", "latitude": "43.67109", "country_iso2": "JP", "timezone": "Asia/Tokyo", "geoname_id": "2130629", "longitude": "142.45454", "iata_code": "AKJ"}, {"gmt": "-9", "city_name": "Akhiok", "latitude": "56.944443", "country_iso2": "US", "timezone": "America/Anchorage", "geoname_id": "5878982", "longitude": "-154.16667", "iata_code": "AKK"}, {"gmt": "12", "city_name": "Auckland", "latitude": "-36.84846", "country_iso2": "NZ", "timezone": "Pacific/Auckland", "geoname_id": "2193733", "longitude": "174.763331", "iata_code": "AKL"}, {"gmt": "1", "city_name": "Zakouma", "latitude": "10.883333", "country_iso2": "TD", "timezone": "Africa/Ndjamena", "geoname_id": "2424121", "longitude": "19.816668", "iata_code": "AKM"}, {"gmt": "-9", "city_name": "King Salmon", "latitude": "58.68274", "country_iso2": "US", "timezone": "America/Anchorage", "geoname_id": "5866330", "longitude": "-156.66902", "iata_code": "AKN"}, {"gmt": "-7", "city_name": "Akron", "latitude": "40.166668", "country_iso2": "US", "timezone": "America/Denver", "geoname_id": null, "longitude": "-103.21667", "iata_code": "AKO"}, {"gmt": "-9", "city_name": "Anaktuvuk", "latitude": "68.1375", "country_iso2": "US", "timezone": "America/Anchorage", "geoname_id": null, "longitude": "-151.74", "iata_code": "AKP"}, {"gmt": "7", "city_name": "Astraksetra", "latitude": "-4.616667", "country_iso2": "ID", "timezone": "Asia/Jakarta", "geoname_id": "1624917", "longitude": "105.23333", "iata_code": "AKQ"}, {"gmt": "1", "city_name": "Akure", "latitude": "7.25", "country_iso2": "NG", "timezone": "Africa/Lagos", "geoname_id": "2350841", "longitude": "5.083333", "iata_code": "AKR"}, {"gmt": "11", "city_name": "Auki", "latitude": "-8.697778", "country_iso2": "SB", "timezone": "Pacific/Guadalcanal", "geoname_id": "2109701", "longitude": "160.68083", "iata_code": "AKS"}, {"gmt": "2", "city_name": "Akrotiri", "latitude": "34.583332", "country_iso2": "CY", "timezone": "Asia/Nicosia", "geoname_id": null, "longitude": "32.983334", "iata_code": "AKT"}, {"gmt": "8", "city_name": "Aksu", "latitude": "41.259983", "country_iso2": "CN", "timezone": "Asia/Shanghai", "geoname_id": "1529660", "longitude": "80.29262", "iata_code": "AKU"}, {"gmt": "-5", "city_name": "Akulivik", "latitude": "60.733334", "country_iso2": "CA", "timezone": "America/Montreal", "geoname_id": "5882994", "longitude": "-78.583336", "iata_code": "AKV"}, {"gmt": "3.30", "city_name": "Aghajari", "latitude": "30.75", "country_iso2": "IR", "timezone": "Asia/Tehran", "geoname_id": null, "longitude": "49.683334", "iata_code": "AKW"}, {"gmt": "5", "city_name": "Aktyubinsk", "latitude": "50.249336", "country_iso2": "KZ", "timezone": "Asia/Aqtobe", "geoname_id": "610611", "longitude": "57.211403", "iata_code": "AKX"}, {"gmt": "6.30", "city_name": "Sittwe", "latitude": "20.130278", "country_iso2": "MM", "timezone": "Asia/Rangoon", "geoname_id": "1295765", "longitude": "92.88028", "iata_code": "AKY"}, {"gmt": "6", "city_name": "Almaty", "latitude": "43.255058", "country_iso2": "KZ", "timezone": "Asia/Almaty", "geoname_id": "1526384", "longitude": "76.912628", "iata_code": "ALA"}, {"gmt": "-5", "city_name": "Albany", "latitude": "42.652579", "country_iso2": "US", "timezone": "America/New_York", "geoname_id": "5106834", "longitude": "-73.756232", "iata_code": "ALB"}, {"gmt": "1", "city_name": "Alicante", "latitude": "38.34521", "country_iso2": "ES", "timezone": "Europe/Madrid", "geoname_id": "2521978", "longitude": "-0.480994", "iata_code": "ALC"}, {"gmt": "-5", "city_name": "Alerta", "latitude": "-11.683333", "country_iso2": "PE", "timezone": "America/Lima", "geoname_id": null, "longitude": "-69.333336", "iata_code": "ALD"}, {"gmt": "-6", "city_name": "Alpine", "latitude": "30.416668", "country_iso2": "US", "timezone": "America/Chicago", "geoname_id": "5516203", "longitude": "-103.75", "iata_code": "ALE"}, {"gmt": "1", "city_name": "Alta", "latitude": "69.977165", "country_iso2": "NO", "timezone": "Europe/Oslo", "geoname_id": "847633", "longitude": "23.355808", "iata_code": "ALF"}, {"gmt": "1", "city_name": "Algiers", "latitude": "36.70058", "country_iso2": "DZ", "timezone": "Africa/Algiers", "geoname_id": "2507480", "longitude": "3.21167", "iata_code": "ALG"}, {"gmt": "8", "city_name": "Albany", "latitude": "-34.944996", "country_iso2": "AU", "timezone": "Australia/Perth", "geoname_id": "2077963", "longitude": "117.804", "iata_code": "ALH"}, {"gmt": "-6", "city_name": "Alice", "latitude": "27.75", "country_iso2": "US", "timezone": "America/Chicago", "geoname_id": "4670234", "longitude": "-98.066666", "iata_code": "ALI"}, {"gmt": "2", "city_name": "Alexander Bay", "latitude": "-28.567223", "country_iso2": "ZA", "timezone": "Africa/Johannesburg", "geoname_id": null, "longitude": "16.536388", "iata_code": "ALJ"}, {"gmt": "3", "city_name": "Asela", "latitude": "7.966667", "country_iso2": "ET", "timezone": "Africa/Addis_Ababa", "geoname_id": null, "longitude": "39.11667", "iata_code": "ALK"}, {"gmt": "1", "city_name": "Albenga", "latitude": "44.05", "country_iso2": "IT", "timezone": "Europe/Rome", "geoname_id": "3183343", "longitude": "8.216667", "iata_code": "ALL"}, {"gmt": "-7", "city_name": "Alamogordo", "latitude": "32.899532", "country_iso2": "US", "timezone": "America/Denver", "geoname_id": "5454627", "longitude": "-105.960265", "iata_code": "ALM"}, {"gmt": "-6", "city_name": "Alton", "latitude": "38.891666", "country_iso2": "US", "timezone": "America/Chicago", "geoname_id": "4407066", "longitude": "-90.04833", "iata_code": "ALN"}, {"gmt": "-6", "city_name": "Waterloo", "latitude": "42.55611", "country_iso2": "US", "timezone": "America/Chicago", "geoname_id": "4880889", "longitude": "-92.39972", "iata_code": "ALO"}, {"gmt": "2", "city_name": "Aleppo", "latitude": "36.185352", "country_iso2": "SY", "timezone": "Asia/Damascus", "geoname_id": "170063", "longitude": "37.227074", "iata_code": "ALP"}, {"gmt": "-3", "city_name": "Alegrete", "latitude": "-29.799723", "country_iso2": "BR", "timezone": "America/Sao_Paulo", "geoname_id": null, "longitude": "-55.763332", "iata_code": "ALQ"}, {"gmt": "12", "city_name": "Alexandra", "latitude": "-45.21389", "country_iso2": "NZ", "timezone": "Pacific/Auckland", "geoname_id": "2184707", "longitude": "169.36945", "iata_code": "ALR"}, {"gmt": "-7", "city_name": "Alamosa", "latitude": "37.43667", "country_iso2": "US", "timezone": "America/Denver", "geoname_id": "5411479", "longitude": "-105.86667", "iata_code": "ALS"}, {"gmt": "-3", "city_name": "Alenquer", "latitude": "-1.933333", "country_iso2": "BR", "timezone": "America/Santarem", "geoname_id": "3407980", "longitude": "-54.766666", "iata_code": "ALT"}, {"gmt": "3", "city_name": "Alula", "latitude": "11.966667", "country_iso2": "SO", "timezone": "Africa/Mogadishu", "geoname_id": null, "longitude": "50.8", "iata_code": "ALU"}, {"gmt": "-8", "city_name": "Walla Walla", "latitude": "46.094723", "country_iso2": "US", "timezone": "America/Los_Angeles", "geoname_id": "5814916", "longitude": "-118.291115", "iata_code": "ALW"}, {"gmt": "-6", "city_name": "Alexander City", "latitude": "32.933334", "country_iso2": "US", "timezone": "America/Chicago", "geoname_id": "4829843", "longitude": "-85.95", "iata_code": "ALX"}, {"gmt": "2", "city_name": "Alexandria", "latitude": "31.2135", "country_iso2": "EG", "timezone": "Africa/Cairo", "geoname_id": "361058", "longitude": "29.9443", "iata_code": "ALY"}, {"gmt": "-9", "city_name": "Alitak", "latitude": "56.895832", "country_iso2": "US", "timezone": "America/Anchorage", "geoname_id": null, "longitude": "-154.24583", "iata_code": "ALZ"}, {"gmt": "-6", "city_name": "Amarillo", "latitude": "35.221997", "country_iso2": "US", "timezone": "America/Chicago", "geoname_id": "5516233", "longitude": "-101.831297", "iata_code": "AMA"}, {"gmt": "3", "city_name": "Ambilobe", "latitude": "-13.183333", "country_iso2": "MG", "timezone": "Indian/Antananarivo", "geoname_id": null, "longitude": "48.983334", "iata_code": "AMB"}, {"gmt": "1", "city_name": "Am Timan", "latitude": "11.033333", "country_iso2": "TD", "timezone": "Africa/Ndjamena", "geoname_id": null, "longitude": "20.283333", "iata_code": "AMC"}, {"gmt": "5.30", "city_name": "Ahmedabad", "latitude": "23.06639", "country_iso2": "IN", "timezone": "Asia/Kolkata", "geoname_id": "1279233", "longitude": "72.62417", "iata_code": "AMD"}, {"gmt": "2", "city_name": "Alto Molocue", "latitude": "-15.833333", "country_iso2": "MZ", "timezone": "Africa/Maputo", "geoname_id": null, "longitude": "37.583332", "iata_code": "AME"}, {"gmt": "10", "city_name": "Ama", "latitude": "-4.166667", "country_iso2": "PG", "timezone": "Pacific/Port_Moresby", "geoname_id": "2100991", "longitude": "141.66667", "iata_code": "AMF"}, {"gmt": "10", "city_name": "Amboin", "latitude": "-4.616667", "country_iso2": "PG", "timezone": "Pacific/Port_Moresby", "geoname_id": null, "longitude": "143.7", "iata_code": "AMG"}, {"gmt": "3", "city_name": "Arba Mintch", "latitude": "6.036111", "country_iso2": "ET", "timezone": "Africa/Addis_Ababa", "geoname_id": null, "longitude": "37.576942", "iata_code": "AMH"}, {"gmt": "8", "city_name": "Mataram", "latitude": "-8.563165", "country_iso2": "ID", "timezone": "Asia/Makassar", "geoname_id": null, "longitude": "116.10237", "iata_code": "AMI"}, {"gmt": "-3", "city_name": "Almenara", "latitude": "-16.183332", "country_iso2": "BR", "timezone": "America/Sao_Paulo", "geoname_id": null, "longitude": "-40.683334", "iata_code": "AMJ"}, {"gmt": "-5", "city_name": "Puerto Armuellas", "latitude": "8.266667", "country_iso2": "PA", "timezone": "America/Panama", "geoname_id": "3711668", "longitude": "-82.86667", "iata_code": "AML"}, {"gmt": "2", "city_name": "Amman", "latitude": "31.722534", "country_iso2": "JO", "timezone": "Asia/Amman", "geoname_id": "250441", "longitude": "35.98932", "iata_code": "AMM"}, {"gmt": "-5", "city_name": "Alma", "latitude": "43.38333", "country_iso2": "US", "timezone": "America/Detroit", "geoname_id": "4998830", "longitude": "-84.65", "iata_code": "AMN"}, {"gmt": "1", "city_name": "Mao", "latitude": "14.116667", "country_iso2": "TD", "timezone": "Africa/Ndjamena", "geoname_id": "2428394", "longitude": "15.316667", "iata_code": "AMO"}, {"gmt": "3", "city_name": "Ampanihy", "latitude": "-24.7", "country_iso2": "MG", "timezone": "Indian/Antananarivo", "geoname_id": null, "longitude": "44.733334", "iata_code": "AMP"}, {"gmt": "9", "city_name": "Ambon", "latitude": "-3.704996", "country_iso2": "ID", "timezone": "Asia/Jayapura", "geoname_id": "1651531", "longitude": "128.08888", "iata_code": "AMQ"}, {"gmt": "12", "city_name": "Arno", "latitude": "7.033333", "country_iso2": "MH", "timezone": "Pacific/Majuro", "geoname_id": null, "longitude": "171.23334", "iata_code": "AMR"}, {"gmt": "1", "city_name": "Amsterdam", "latitude": "52.373056", "country_iso2": "NL", "timezone": "Europe/Amsterdam", "geoname_id": "2759794", "longitude": "4.892222", "iata_code": "AMS"}, {"gmt": "9.30", "city_name": "Amata", "latitude": "-26.766666", "country_iso2": "AU", "timezone": "Australia/Adelaide", "geoname_id": null, "longitude": "132.03334", "iata_code": "AMT"}, {"gmt": "10", "city_name": "Amanab", "latitude": "-3.516667", "country_iso2": "PG", "timezone": "Pacific/Port_Moresby", "geoname_id": "2100976", "longitude": "141.15", "iata_code": "AMU"}, {"gmt": "3", "city_name": "Amderma", "latitude": "69.76667", "country_iso2": "RU", "timezone": "Europe/Moscow", "geoname_id": null, "longitude": "61.55", "iata_code": "AMV"}, {"gmt": "-6", "city_name": "Ames", "latitude": "41.994167", "country_iso2": "US", "timezone": "America/Chicago", "geoname_id": "4846834", "longitude": "-93.61833", "iata_code": "AMW"}, {"gmt": "9.30", "city_name": "Ammaroo", "latitude": "-21.74", "country_iso2": "AU", "timezone": "Australia/Darwin", "geoname_id": null, "longitude": "135.24", "iata_code": "AMX"}, {"gmt": "3", "city_name": "Ambatomainty", "latitude": "-17.683332", "country_iso2": "MG", "timezone": "Indian/Antananarivo", "geoname_id": null, "longitude": "45.666668", "iata_code": "AMY"}, {"gmt": "12", "city_name": "Ardmore", "latitude": "-37.033333", "country_iso2": "NZ", "timezone": "Pacific/Auckland", "geoname_id": "2193733", "longitude": "174.96666", "iata_code": "AMZ"}, {"gmt": "-8", "city_name": "Anaheim", "latitude": "33.816666", "country_iso2": "US", "timezone": "America/Los_Angeles", "geoname_id": "5323810", "longitude": "-117.933334", "iata_code": "ANA"}, {"gmt": "-6", "city_name": "Anniston", "latitude": "33.659826", "country_iso2": "US", "timezone": "America/Chicago", "geoname_id": "4081914", "longitude": "-85.831632", "iata_code": "ANB"}, {"gmt": "-9", "city_name": "Anchorage", "latitude": "61.218056", "country_iso2": "US", "timezone": "America/Anchorage", "geoname_id": "5879400", "longitude": "-149.900278", "iata_code": "ANC"}, {"gmt": "-5", "city_name": "Anderson", "latitude": "34.49361", "country_iso2": "US", "timezone": "America/New_York", "geoname_id": "4569298", "longitude": "-82.71", "iata_code": "AND"}, {"gmt": "1", "city_name": "Angers", "latitude": "47.478419", "country_iso2": "FR", "timezone": "Europe/Paris", "geoname_id": "3037656", "longitude": "-0.563166", "iata_code": "ANE"}, {"gmt": "-4", "city_name": "Antofagasta", "latitude": "-23.449", "country_iso2": "CL", "timezone": "America/Santiago", "geoname_id": "3899539", "longitude": "-70.44079", "iata_code": "ANF"}, {"gmt": "1", "city_name": "Angouleme", "latitude": "45.733334", "country_iso2": "FR", "timezone": "Europe/Paris", "geoname_id": "3027064", "longitude": "0.216667", "iata_code": "ANG"}, {"gmt": "11", "city_name": "Anuha Island Resort", "latitude": "-8.983333", "country_iso2": "SB", "timezone": "Pacific/Guadalcanal", "geoname_id": null, "longitude": "160.5", "iata_code": "ANH"}, {"gmt": "-9", "city_name": "Aniak", "latitude": "61.574398", "country_iso2": "US", "timezone": "America/Anchorage", "geoname_id": "5879487", "longitude": "-159.53697", "iata_code": "ANI"}, {"gmt": "1", "city_name": "Zanaga", "latitude": "-2.85", "country_iso2": "CG", "timezone": "Africa/Brazzaville", "geoname_id": "2254814", "longitude": "13.833333", "iata_code": "ANJ"}, {"gmt": "3", "city_name": "Ankara", "latitude": "39.866667", "country_iso2": "TR", "timezone": "Europe/Istanbul", "geoname_id": "323786", "longitude": "39.866667", "iata_code": "ANK"}, {"gmt": "1", "city_name": "Andulo", "latitude": "-11.25", "country_iso2": "AO", "timezone": "Africa/Luanda", "geoname_id": null, "longitude": "17.25", "iata_code": "ANL"}, {"gmt": "3", "city_name": "Antalaha", "latitude": "-15", "country_iso2": "MG", "timezone": "Indian/Antananarivo", "geoname_id": "1071296", "longitude": "50.316666", "iata_code": "ANM"}, {"gmt": "-9", "city_name": "Annette Island", "latitude": "55.036945", "country_iso2": "US", "timezone": "America/Sitka", "geoname_id": "5554428", "longitude": "-131.57056", "iata_code": "ANN"}, {"gmt": "2", "city_name": "Angoche", "latitude": "-16.177778", "country_iso2": "MZ", "timezone": "Africa/Maputo", "geoname_id": null, "longitude": "39.936943", "iata_code": "ANO"}, {"gmt": "-5", "city_name": "Annapolis", "latitude": "38.983334", "country_iso2": "US", "timezone": "America/New_York", "geoname_id": "4140963", "longitude": "-76.5", "iata_code": "ANP"}, {"gmt": "-5", "city_name": "Angola", "latitude": "41.63333", "country_iso2": "US", "timezone": "America/Indiana/Indianapolis", "geoname_id": "4917614", "longitude": "-85", "iata_code": "ANQ"}, {"gmt": "1", "city_name": "Antwerp", "latitude": "51.21992", "country_iso2": "BE", "timezone": "Europe/Brussels", "geoname_id": "2803138", "longitude": "4.39625", "iata_code": "ANR"}, {"gmt": "-5", "city_name": "Andahuaylas", "latitude": "-13.716667", "country_iso2": "PE", "timezone": "America/Lima", "geoname_id": "3947740", "longitude": "-73.355835", "iata_code": "ANS"}, {"gmt": "1", "city_name": "St Anton", "latitude": "47.15", "country_iso2": "AT", "timezone": "Europe/Vienna", "geoname_id": null, "longitude": "10.283333", "iata_code": "ANT"}, {"gmt": "-4", "city_name": "St. John's", "latitude": "17.108334", "country_iso2": "AG", "timezone": "America/Antigua", "geoname_id": "3576022", "longitude": "-61.76389", "iata_code": "ANU"}, {"gmt": "-9", "city_name": "Anvik", "latitude": "62.647778", "country_iso2": "US", "timezone": "America/Anchorage", "geoname_id": "5879553", "longitude": "-160.18889", "iata_code": "ANV"}, {"gmt": "-6", "city_name": "Ainsworth", "latitude": "42.55", "country_iso2": "US", "timezone": "America/Chicago", "geoname_id": null, "longitude": "-99.86667", "iata_code": "ANW"}, {"gmt": "1", "city_name": "Andenes", "latitude": "69.30492", "country_iso2": "NO", "timezone": "Europe/Oslo", "geoname_id": "3163146", "longitude": "16.133326", "iata_code": "ANX"}, {"gmt": "-6", "city_name": "Anthony", "latitude": "37.15", "country_iso2": "US", "timezone": "America/Chicago", "geoname_id": "4281730", "longitude": "-98.03333", "iata_code": "ANY"}, {"gmt": "9.30", "city_name": "Angus Downs", "latitude": "-25.083332", "country_iso2": "AU", "timezone": "Australia/Darwin", "geoname_id": null, "longitude": "132.16667", "iata_code": "ANZ"}, {"gmt": "10", "city_name": "Aroa", "latitude": "-9.05", "country_iso2": "PG", "timezone": "Pacific/Port_Moresby", "geoname_id": "2100552", "longitude": "146.8", "iata_code": "AOA"}, {"gmt": "10", "city_name": "Annanberg", "latitude": "-4.916667", "country_iso2": "PG", "timezone": "Pacific/Port_Moresby", "geoname_id": "2100742", "longitude": "144.65", "iata_code": "AOB"}, {"gmt": "1", "city_name": "Altenburg", "latitude": "50.983334", "country_iso2": "DE", "timezone": "Europe/Berlin", "geoname_id": "2957773", "longitude": "12.45", "iata_code": "AOC"}, {"gmt": "1", "city_name": "Abou Deia", "latitude": "11.474722", "country_iso2": "TD", "timezone": "Africa/Ndjamena", "geoname_id": null, "longitude": "19.288889", "iata_code": "AOD"}, {"gmt": "8", "city_name": "Anshan", "latitude": "41.166668", "country_iso2": "CN", "timezone": "Asia/Shanghai", "geoname_id": "2038632", "longitude": "123.03333", "iata_code": "AOG"}, {"gmt": "-5", "city_name": "Lima", "latitude": "40.766666", "country_iso2": "US", "timezone": "America/New_York", "geoname_id": "5160783", "longitude": "-84.1", "iata_code": "AOH"}, {"gmt": "1", "city_name": "Ancona", "latitude": "43.60691", "country_iso2": "IT", "timezone": "Europe/Rome", "geoname_id": "3183089", "longitude": "13.355723", "iata_code": "AOI"}, {"gmt": "9", "city_name": "Aomori", "latitude": "40.738758", "country_iso2": "JP", "timezone": "Asia/Tokyo", "geoname_id": "2130658", "longitude": "140.68922", "iata_code": "AOJ"}], [{"gmt": "2", "city_name": "Karpathos", "latitude": "35.420685", "country_iso2": "GR", "timezone": "Europe/Athens", "geoname_id": "264641", "longitude": "27.146729", "iata_code": "AOK"}, {"gmt": "-3", "city_name": "Paso De Los Libres", "latitude": "-29.683332", "country_iso2": "AR", "timezone": "America/Argentina/Cordoba", "geoname_id": "3427279", "longitude": "-57.15", "iata_code": "AOL"}, {"gmt": "4", "city_name": "Adam", "latitude": "40.738758", "country_iso2": "OM", "timezone": "Asia/Muscat", "geoname_id": "289384", "longitude": "140.68922", "iata_code": "AOM"}, {"gmt": "10", "city_name": "Arona", "latitude": "-6.333333", "country_iso2": "PG", "timezone": "Pacific/Port_Moresby", "geoname_id": "2100541", "longitude": "146", "iata_code": "AON"}, {"gmt": "-5", "city_name": "Martinsburg", "latitude": "40.297222", "country_iso2": "US", "timezone": "America/New_York", "geoname_id": "5200055", "longitude": "-78.32", "iata_code": "AOO"}, {"gmt": "-5", "city_name": "Andoas", "latitude": "-2.90464", "country_iso2": "PE", "timezone": "America/Lima", "geoname_id": "3699659", "longitude": "-76.40236", "iata_code": "AOP"}, {"gmt": "8", "city_name": "Alor Setar", "latitude": "6.201171", "country_iso2": "MY", "timezone": "Asia/Kuala_Lumpur", "geoname_id": "1736309", "longitude": "100.405266", "iata_code": "AOR"}, {"gmt": "-9", "city_name": "Amook", "latitude": "57.466667", "country_iso2": "US", "timezone": "America/Anchorage", "geoname_id": null, "longitude": "-153.83333", "iata_code": "AOS"}, {"gmt": "1", "city_name": "Aosta", "latitude": "45.73861", "country_iso2": "IT", "timezone": "Europe/Rome", "geoname_id": "3182997", "longitude": "7.3625", "iata_code": "AOT"}, {"gmt": "7", "city_name": "Attopeu", "latitude": "14.8", "country_iso2": "LA", "timezone": "Asia/Vientiane", "geoname_id": "1665046", "longitude": "106.833336", "iata_code": "AOU"}, {"gmt": "-4", "city_name": "Apolo", "latitude": "-14.716667", "country_iso2": "BO", "timezone": "America/La_Paz", "geoname_id": null, "longitude": "-68.51667", "iata_code": "APB"}, {"gmt": "-8", "city_name": "Napa", "latitude": "38.212223", "country_iso2": "US", "timezone": "America/Los_Angeles", "geoname_id": "5376095", "longitude": "-122.28", "iata_code": "APC"}, {"gmt": "-5", "city_name": "San Juan Aposento", "latitude": "-11.933333", "country_iso2": "PE", "timezone": "America/Lima", "geoname_id": null, "longitude": "-69.083336", "iata_code": "APE"}, {"gmt": "-5", "city_name": "Naples", "latitude": "26.152779", "country_iso2": "US", "timezone": "America/New_York", "geoname_id": "4165565", "longitude": "-81.775276", "iata_code": "APF"}, {"gmt": "-5", "city_name": "Aberdeen", "latitude": "39.5", "country_iso2": "US", "timezone": "America/New_York", "geoname_id": null, "longitude": "-76.166664", "iata_code": "APG"}, {"gmt": "-5", "city_name": "Bowling Green", "latitude": "38.05", "country_iso2": "US", "timezone": "America/New_York", "geoname_id": null, "longitude": "-77.35", "iata_code": "APH"}, {"gmt": "-5", "city_name": "Apiay", "latitude": "4.068889", "country_iso2": "CO", "timezone": "America/Bogota", "geoname_id": "3689790", "longitude": "-73.05194", "iata_code": "API"}, {"gmt": "-10", "city_name": "Apataki", "latitude": "-15.416667", "country_iso2": "PF", "timezone": "Pacific/Tahiti", "geoname_id": null, "longitude": "-146.08333", "iata_code": "APK"}, {"gmt": "2", "city_name": "Nampula", "latitude": "-15.101667", "country_iso2": "MZ", "timezone": "Africa/Maputo", "geoname_id": "1033356", "longitude": "39.287224", "iata_code": "APL"}, {"gmt": "-5", "city_name": "Alpena", "latitude": "45.08167", "country_iso2": "US", "timezone": "America/Detroit", "geoname_id": "4984075", "longitude": "-83.55583", "iata_code": "APN"}, {"gmt": "-5", "city_name": "Apartado", "latitude": "7.817678", "country_iso2": "CO", "timezone": "America/Bogota", "geoname_id": null, "longitude": "-76.71766", "iata_code": "APO"}, {"gmt": "10", "city_name": "Asapa", "latitude": "-8.983333", "country_iso2": "PG", "timezone": "Pacific/Port_Moresby", "geoname_id": null, "longitude": "148.13333", "iata_code": "APP"}, {"gmt": "-3", "city_name": "Arapiraca", "latitude": "-9.75", "country_iso2": "BR", "timezone": "America/Maceio", "geoname_id": "3395981", "longitude": "-36.65", "iata_code": "APQ"}, {"gmt": "10", "city_name": "April River", "latitude": "-8.5", "country_iso2": "PG", "timezone": "Pacific/Port_Moresby", "geoname_id": null, "longitude": "145", "iata_code": "APR"}, {"gmt": "-3", "city_name": "Anapolis", "latitude": "-16.333332", "country_iso2": "BR", "timezone": "America/Sao_Paulo", "geoname_id": "3462377", "longitude": "-48.966667", "iata_code": "APS"}, {"gmt": "-6", "city_name": "Jasper", "latitude": "35.066666", "country_iso2": "US", "timezone": "America/Chicago", "geoname_id": null, "longitude": "-85.5", "iata_code": "APT"}, {"gmt": "-3", "city_name": "Apucarana", "latitude": "-23.55", "country_iso2": "BR", "timezone": "America/Sao_Paulo", "geoname_id": "3457671", "longitude": "-51.483334", "iata_code": "APU"}, {"gmt": "-8", "city_name": "Apple Valley", "latitude": "34.52639", "country_iso2": "US", "timezone": "America/Los_Angeles", "geoname_id": "5324363", "longitude": "-117.212776", "iata_code": "APV"}, {"gmt": "13", "city_name": "Apia", "latitude": "-13.833333", "country_iso2": "WS", "timezone": "Pacific/Apia", "geoname_id": "4035413", "longitude": "-171.766667", "iata_code": "APW"}, {"gmt": "-3", "city_name": "Arapongas", "latitude": "-23.483334", "country_iso2": "BR", "timezone": "America/Sao_Paulo", "geoname_id": "3457671", "longitude": "-51.466667", "iata_code": "APX"}, {"gmt": "-3", "city_name": "Alto Parnaiba", "latitude": "-9.133333", "country_iso2": "BR", "timezone": "America/Fortaleza", "geoname_id": null, "longitude": "-45.933334", "iata_code": "APY"}, {"gmt": "-3", "city_name": "Zapala", "latitude": "-38.916668", "country_iso2": "AR", "timezone": "America/Argentina/Salta", "geoname_id": "8556185", "longitude": "-70.083336", "iata_code": "APZ"}, {"gmt": "-3", "city_name": "Araraquara", "latitude": "-21.816668", "country_iso2": "BR", "timezone": "America/Sao_Paulo", "geoname_id": "3471766", "longitude": "-48.13333", "iata_code": "AQA"}, {"gmt": "-6", "city_name": "Quiche", "latitude": "15.01", "country_iso2": "GT", "timezone": "America/Guatemala", "geoname_id": "3599699", "longitude": "-91.15", "iata_code": "AQB"}, {"gmt": "8", "city_name": "Anqing", "latitude": "30.5825", "country_iso2": "CN", "timezone": "Asia/Shanghai", "geoname_id": "1817993", "longitude": "117.0509", "iata_code": "AQG"}, {"gmt": "3", "city_name": "Qaisumah", "latitude": "28.334408", "country_iso2": "SA", "timezone": "Asia/Riyadh", "geoname_id": null, "longitude": "46.121315", "iata_code": "AQI"}, {"gmt": "2", "city_name": "Aqaba", "latitude": "29.610073", "country_iso2": "JO", "timezone": "Asia/Amman", "geoname_id": "250774", "longitude": "35.02151", "iata_code": "AQJ"}, {"gmt": "-4", "city_name": "Ariquemes", "latitude": "-9.933333", "country_iso2": "BR", "timezone": "America/Porto_Velho", "geoname_id": null, "longitude": "-63.066666", "iata_code": "AQM"}, {"gmt": "-5", "city_name": "Arequipa", "latitude": "-16.344812", "country_iso2": "PE", "timezone": "America/Lima", "geoname_id": "3947322", "longitude": "-71.56799", "iata_code": "AQP"}, {"gmt": "12", "city_name": "Saqani", "latitude": "-17", "country_iso2": "FJ", "timezone": "Pacific/Fiji", "geoname_id": null, "longitude": "170.9", "iata_code": "AQS"}, {"gmt": "-9", "city_name": "Alyeska", "latitude": "60.966667", "country_iso2": "US", "timezone": "America/Anchorage", "geoname_id": "5879267", "longitude": "-149.11667", "iata_code": "AQY"}, {"gmt": "-6", "city_name": "New Iberia", "latitude": "30.037779", "country_iso2": "US", "timezone": "America/Chicago", "geoname_id": "4334971", "longitude": "-91.88389", "iata_code": "ARA"}, {"gmt": "-5", "city_name": "Ann Arbor", "latitude": "42.3", "country_iso2": "US", "timezone": "America/Detroit", "geoname_id": "4984247", "longitude": "-83.75", "iata_code": "ARB"}, {"gmt": "-9", "city_name": "Arctic Village", "latitude": "68.1375", "country_iso2": "US", "timezone": "America/Anchorage", "geoname_id": "5879636", "longitude": "-145.52444", "iata_code": "ARC"}, {"gmt": "8", "city_name": "Alor Island", "latitude": "-8.683333", "country_iso2": "ID", "timezone": "Asia/Makassar", "geoname_id": null, "longitude": "124.53333", "iata_code": "ARD"}, {"gmt": "-4", "city_name": "Arecibo", "latitude": "18.45", "country_iso2": "PR", "timezone": "America/Puerto_Rico", "geoname_id": "4562635", "longitude": "-66.675835", "iata_code": "ARE"}, {"gmt": "-5", "city_name": "Acaricuara", "latitude": "0.533333", "country_iso2": "CO", "timezone": "America/Bogota", "geoname_id": null, "longitude": "-70.13333", "iata_code": "ARF"}, {"gmt": "-6", "city_name": "Walnut Ridge", "latitude": "36.066666", "country_iso2": "US", "timezone": "America/Chicago", "geoname_id": "4102412", "longitude": "-90.95", "iata_code": "ARG"}, {"gmt": "3", "city_name": "Arkhangelsk", "latitude": "64.594795", "country_iso2": "RU", "timezone": "Europe/Moscow", "geoname_id": "581049", "longitude": "40.711903", "iata_code": "ARH"}, {"gmt": "-4", "city_name": "Arica", "latitude": "-18.349766", "country_iso2": "CL", "timezone": "America/Santiago", "geoname_id": "3899361", "longitude": "-70.335556", "iata_code": "ARI"}, {"gmt": "9", "city_name": "Arso", "latitude": "-2.933333", "country_iso2": "ID", "timezone": "Asia/Jayapura", "geoname_id": "2082600", "longitude": "140.78334", "iata_code": "ARJ"}, {"gmt": "3", "city_name": "Arusha", "latitude": "-3.366667", "country_iso2": "TZ", "timezone": "Africa/Dar_es_Salaam", "geoname_id": "161325", "longitude": "36.683334", "iata_code": "ARK"}, {"gmt": null, "city_name": "Arly", "latitude": "11.6", "country_iso2": "BF", "timezone": "Africa/Ouagadougou", "geoname_id": null, "longitude": "1.483333", "iata_code": "ARL"}, {"gmt": "10", "city_name": "Armidale", "latitude": "-30.532297", "country_iso2": "AU", "timezone": "Australia/Sydney", "geoname_id": "2177671", "longitude": "151.61493", "iata_code": "ARM"}, {"gmt": "-5", "city_name": "Arboletas", "latitude": "8.85", "country_iso2": "CO", "timezone": "America/Bogota", "geoname_id": null, "longitude": "-76.433334", "iata_code": "ARO"}, {"gmt": "10", "city_name": "Aragip", "latitude": "-9.8", "country_iso2": "PG", "timezone": "Pacific/Port_Moresby", "geoname_id": "2085070", "longitude": "149.5", "iata_code": "ARP"}, {"gmt": "-5", "city_name": "Arauquita", "latitude": "7.033056", "country_iso2": "CO", "timezone": "America/Bogota", "geoname_id": null, "longitude": "-71.43166", "iata_code": "ARQ"}, {"gmt": "-3", "city_name": "Alto Rio Senguerr", "latitude": "-45.033333", "country_iso2": "AR", "timezone": "America/Argentina/Catamarca", "geoname_id": null, "longitude": "-70.833336", "iata_code": "ARR"}, {"gmt": "-3", "city_name": "Aragarcas", "latitude": "-15.9", "country_iso2": "BR", "timezone": "America/Sao_Paulo", "geoname_id": null, "longitude": "-52.233334", "iata_code": "ARS"}, {"gmt": "-5", "city_name": "Watertown", "latitude": "43.990833", "country_iso2": "US", "timezone": "America/New_York", "geoname_id": "5143396", "longitude": "-76.021385", "iata_code": "ART"}, {"gmt": "-3", "city_name": "Aracatuba", "latitude": "-21.143612", "country_iso2": "BR", "timezone": "America/Sao_Paulo", "geoname_id": "3471859", "longitude": "-50.42611", "iata_code": "ARU"}, {"gmt": "-6", "city_name": "Minocqua", "latitude": "45.924168", "country_iso2": "US", "timezone": "America/Chicago", "geoname_id": "5263156", "longitude": "-89.73222", "iata_code": "ARV"}, {"gmt": "2", "city_name": "Arad", "latitude": "46.183334", "country_iso2": "RO", "timezone": "Europe/Bucharest", "geoname_id": "686254", "longitude": "21.266666", "iata_code": "ARW"}, {"gmt": "-5", "city_name": "Neptune", "latitude": "40.216667", "country_iso2": "US", "timezone": "America/New_York", "geoname_id": null, "longitude": "-74.1", "iata_code": "ARX"}, {"gmt": "10", "city_name": "Ararat", "latitude": "-37.316666", "country_iso2": "AU", "timezone": "Australia/Melbourne", "geoname_id": "2177091", "longitude": "143", "iata_code": "ARY"}, {"gmt": "1", "city_name": "N'zeto", "latitude": "-7.5", "country_iso2": "AO", "timezone": "Africa/Luanda", "geoname_id": null, "longitude": "13.5", "iata_code": "ARZ"}, {"gmt": "3", "city_name": "Assab", "latitude": "13.07", "country_iso2": "ER", "timezone": "Africa/Asmara", "geoname_id": null, "longitude": "42.638332", "iata_code": "ASA"}, {"gmt": "5", "city_name": "Ashgabat", "latitude": "37.984184", "country_iso2": "TM", "timezone": "Asia/Ashgabat", "geoname_id": "162183", "longitude": "58.366978", "iata_code": "ASB"}, {"gmt": "-4", "city_name": "Ascension", "latitude": "-15.916667", "country_iso2": "BO", "timezone": "America/La_Paz", "geoname_id": null, "longitude": "-63.15", "iata_code": "ASC"}, {"gmt": "-5", "city_name": "Andros Town", "latitude": "24.697779", "country_iso2": "BS", "timezone": "America/Nassau", "geoname_id": "3572906", "longitude": "-77.79611", "iata_code": "ASD"}, {"gmt": "-7", "city_name": "Aspen", "latitude": "39.219685", "country_iso2": "US", "timezone": "America/Denver", "geoname_id": "5412230", "longitude": "-106.864685", "iata_code": "ASE"}, {"gmt": "3", "city_name": "Astrakhan", "latitude": "46.2877", "country_iso2": "RU", "timezone": "Europe/Volgograd", "geoname_id": "580497", "longitude": "47.999977", "iata_code": "ASF"}, {"gmt": "12", "city_name": "Ashburton", "latitude": "-43.9", "country_iso2": "NZ", "timezone": "Pacific/Auckland", "geoname_id": "6217081", "longitude": "171.78334", "iata_code": "ASG"}, {"gmt": "-5", "city_name": "Nashua", "latitude": "42.77889", "country_iso2": "US", "timezone": "America/New_York", "geoname_id": "5090046", "longitude": "-71.509445", "iata_code": "ASH"}, {"gmt": null, "city_name": "Georgetown", "latitude": "-7.966667", "country_iso2": "SH", "timezone": "Atlantic/St_Helena", "geoname_id": "2411397", "longitude": "-14.4", "iata_code": "ASI"}, {"gmt": "9", "city_name": "Amami", "latitude": "28.431522", "country_iso2": "JP", "timezone": "Asia/Tokyo", "geoname_id": null, "longitude": "129.70793", "iata_code": "ASJ"}, {"gmt": null, "city_name": "Yamoussoukro", "latitude": "6.816667", "country_iso2": "CI", "timezone": "Africa/Abidjan", "geoname_id": null, "longitude": "-5.283333", "iata_code": "ASK"}, {"gmt": "-6", "city_name": "Marshall", "latitude": "32.55", "country_iso2": "US", "timezone": "America/Chicago", "geoname_id": "4709272", "longitude": "-94.38333", "iata_code": "ASL"}, {"gmt": "3", "city_name": "Asmara", "latitude": "15.291111", "country_iso2": "ER", "timezone": "Africa/Asmara", "geoname_id": "343300", "longitude": "38.91028", "iata_code": "ASM"}, {"gmt": "-6", "city_name": "Talladega", "latitude": "33.433334", "country_iso2": "US", "timezone": "America/Chicago", "geoname_id": "4049979", "longitude": "-86.1", "iata_code": "ASN"}, {"gmt": "3", "city_name": "Asosa", "latitude": "10.047222", "country_iso2": "ET", "timezone": "Africa/Addis_Ababa", "geoname_id": null, "longitude": "34.536667", "iata_code": "ASO"}, {"gmt": "9.30", "city_name": "Alice Springs", "latitude": "-23.70021", "country_iso2": "AU", "timezone": "Australia/Darwin", "geoname_id": "2077895", "longitude": "133.880611", "iata_code": "ASP"}, {"gmt": "-8", "city_name": "Austin", "latitude": "39.466667", "country_iso2": "US", "timezone": "America/Los_Angeles", "geoname_id": null, "longitude": "-117.166664", "iata_code": "ASQ"}, {"gmt": "3", "city_name": "Kayseri", "latitude": "38.7742", "country_iso2": "TR", "timezone": "Europe/Istanbul", "geoname_id": "308464", "longitude": "35.490707", "iata_code": "ASR"}, {"gmt": "-8", "city_name": "Astoria", "latitude": "46.15972", "country_iso2": "US", "timezone": "America/Los_Angeles", "geoname_id": "5711847", "longitude": "-123.88", "iata_code": "AST"}, {"gmt": "-4", "city_name": "Asuncion", "latitude": "-25.241795", "country_iso2": "PY", "timezone": "America/Asuncion", "geoname_id": "3439389", "longitude": "-57.513794", "iata_code": "ASU"}, {"gmt": "3", "city_name": "Amboseli", "latitude": "-2.633333", "country_iso2": "KE", "timezone": "Africa/Nairobi", "geoname_id": "201050", "longitude": "37.25", "iata_code": "ASV"}, {"gmt": "2", "city_name": "Aswan", "latitude": "23.968021", "country_iso2": "EG", "timezone": "Africa/Cairo", "geoname_id": "359792", "longitude": "32.824818", "iata_code": "ASW"}, {"gmt": "-6", "city_name": "Ashland", "latitude": "46.55", "country_iso2": "US", "timezone": "America/Chicago", "geoname_id": "5024719", "longitude": "-90.916664", "iata_code": "ASX"}, {"gmt": "-6", "city_name": "Ashley", "latitude": "46.033333", "country_iso2": "US", "timezone": "America/Chicago", "geoname_id": null, "longitude": "-99.36667", "iata_code": "ASY"}, {"gmt": "10", "city_name": "Asirim", "latitude": "-5.866667", "country_iso2": "PG", "timezone": "Pacific/Port_Moresby", "geoname_id": "2093967", "longitude": "150.36667", "iata_code": "ASZ"}, {"gmt": "-5", "city_name": "Anta", "latitude": "-9.347222", "country_iso2": "PE", "timezone": "America/Lima", "geoname_id": "3699617", "longitude": "-77.6", "iata_code": "ATA"}, {"gmt": "3", "city_name": "Atbara", "latitude": "17.716667", "country_iso2": "SD", "timezone": "Africa/Khartoum", "geoname_id": null, "longitude": "34.016666", "iata_code": "ATB"}, {"gmt": "-5", "city_name": "Arthur's Town", "latitude": "24.62861", "country_iso2": "BS", "timezone": "America/Nassau", "geoname_id": null, "longitude": "-75.67139", "iata_code": "ATC"}, {"gmt": "11", "city_name": "Atoifi", "latitude": "-8.866667", "country_iso2": "SB", "timezone": "Pacific/Guadalcanal", "geoname_id": null, "longitude": "161.03334", "iata_code": "ATD"}, {"gmt": "-6", "city_name": "Antlers", "latitude": "34.233334", "country_iso2": "US", "timezone": "America/Chicago", "geoname_id": "4542367", "longitude": "-95.61667", "iata_code": "ATE"}, {"gmt": "-5", "city_name": "Ambato", "latitude": "-1.083333", "country_iso2": "EC", "timezone": "America/Guayaquil", "geoname_id": "3660689", "longitude": "-78.7", "iata_code": "ATF"}, {"gmt": "5", "city_name": "Attock", "latitude": "33.9", "country_iso2": "PK", "timezone": "Asia/Karachi", "geoname_id": null, "longitude": "72.25", "iata_code": "ATG"}, {"gmt": "2", "city_name": "Athens", "latitude": "37.93635", "country_iso2": "GR", "timezone": "Europe/Athens", "geoname_id": "264371", "longitude": "23.946486", "iata_code": "ATH"}, {"gmt": "-3", "city_name": "Artigas", "latitude": "-30.4", "country_iso2": "UY", "timezone": "America/Montevideo", "geoname_id": "3443758", "longitude": "-56.50833", "iata_code": "ATI"}], [{"gmt": "3", "city_name": "Antsirabe", "latitude": "-19.85", "country_iso2": "MG", "timezone": "Indian/Antananarivo", "geoname_id": null, "longitude": "47.016666", "iata_code": "ATJ"}, {"gmt": "-9", "city_name": "Atqasuk", "latitude": "70.5", "country_iso2": "US", "timezone": "America/Anchorage", "geoname_id": "5879756", "longitude": "-157.33333", "iata_code": "ATK"}, {"gmt": "-5", "city_name": "Atlanta", "latitude": "33.748995", "country_iso2": "US", "timezone": "America/New_York", "geoname_id": "4180439", "longitude": "-84.387982", "iata_code": "ATL"}, {"gmt": "-3", "city_name": "Altamira", "latitude": "-3.2", "country_iso2": "BR", "timezone": "America/Santarem", "geoname_id": "3407882", "longitude": "-52.216667", "iata_code": "ATM"}, {"gmt": "10", "city_name": "Namatanai", "latitude": "-3.666667", "country_iso2": "PG", "timezone": "Pacific/Port_Moresby", "geoname_id": "2093685", "longitude": "152.46666", "iata_code": "ATN"}, {"gmt": "-5", "city_name": "Athens", "latitude": "39.333332", "country_iso2": "US", "timezone": "America/New_York", "geoname_id": null, "longitude": "-82.1", "iata_code": "ATO"}, {"gmt": "10", "city_name": "Aitape", "latitude": "-3.166667", "country_iso2": "PG", "timezone": "Pacific/Port_Moresby", "geoname_id": null, "longitude": "142.28334", "iata_code": "ATP"}, {"gmt": "5.30", "city_name": "Amritsar", "latitude": "31.706741", "country_iso2": "IN", "timezone": "Asia/Kolkata", "geoname_id": "1278710", "longitude": "74.8073", "iata_code": "ATQ"}, {"gmt": null, "city_name": "Atar", "latitude": "20.499443", "country_iso2": "MR", "timezone": "Africa/Nouakchott", "geoname_id": null, "longitude": "-13.046389", "iata_code": "ATR"}, {"gmt": "-7", "city_name": "Artesia", "latitude": "32.84833", "country_iso2": "US", "timezone": "America/Denver", "geoname_id": "5488441", "longitude": "-104.46694", "iata_code": "ATS"}, {"gmt": "-9", "city_name": "Atmautluak", "latitude": "60.866943", "country_iso2": "US", "timezone": "America/Nome", "geoname_id": "5879749", "longitude": "-162.2675", "iata_code": "ATT"}, {"gmt": "-10", "city_name": "Attu Island", "latitude": "52.825832", "country_iso2": "US", "timezone": "America/Adak", "geoname_id": null, "longitude": "173.17278", "iata_code": "ATU"}, {"gmt": "1", "city_name": "Ati", "latitude": "13.242222", "country_iso2": "TD", "timezone": "Africa/Ndjamena", "geoname_id": "2436400", "longitude": "18.3075", "iata_code": "ATV"}, {"gmt": "-6", "city_name": "Appleton", "latitude": "44.26011", "country_iso2": "US", "timezone": "America/Chicago", "geoname_id": "5244080", "longitude": "-88.50994", "iata_code": "ATW"}, {"gmt": "6", "city_name": "Atbasar", "latitude": "51.88333", "country_iso2": "KZ", "timezone": "Asia/Almaty", "geoname_id": null, "longitude": "68.4", "iata_code": "ATX"}, {"gmt": "-6", "city_name": "Watertown", "latitude": "44.90889", "country_iso2": "US", "timezone": "America/Chicago", "geoname_id": "5232741", "longitude": "-97.15417", "iata_code": "ATY"}, {"gmt": "2", "city_name": "Assiut", "latitude": "27.033333", "country_iso2": "EG", "timezone": "Africa/Cairo", "geoname_id": null, "longitude": "31", "iata_code": "ATZ"}, {"gmt": "-4", "city_name": "Aruba", "latitude": "12.502222", "country_iso2": "AW", "timezone": "America/Aruba", "geoname_id": "3577152", "longitude": "-70.013885", "iata_code": "AUA"}, {"gmt": "-4", "city_name": "Itauba", "latitude": "-5.766667", "country_iso2": "BR", "timezone": "America/Cuiaba", "geoname_id": null, "longitude": "-63.35", "iata_code": "AUB"}, {"gmt": "-5", "city_name": "Arauca", "latitude": "7.071667", "country_iso2": "CO", "timezone": "America/Bogota", "geoname_id": "3689718", "longitude": "-70.7425", "iata_code": "AUC"}, {"gmt": "10", "city_name": "Augustus Downs", "latitude": "-18.506945", "country_iso2": "AU", "timezone": "Australia/Brisbane", "geoname_id": null, "longitude": "139.88167", "iata_code": "AUD"}, {"gmt": "2", "city_name": "Abu Rudeis", "latitude": "28.9", "country_iso2": "EG", "timezone": "Africa/Cairo", "geoname_id": null, "longitude": "33.183334", "iata_code": "AUE"}, {"gmt": "1", "city_name": "Auxerre", "latitude": "47.85", "country_iso2": "FR", "timezone": "Europe/Paris", "geoname_id": "3035843", "longitude": "3.5", "iata_code": "AUF"}, {"gmt": "-5", "city_name": "Augusta", "latitude": "44.318054", "country_iso2": "US", "timezone": "America/New_York", "geoname_id": "4957003", "longitude": "-69.79667", "iata_code": "AUG"}, {"gmt": "4", "city_name": "Abu Dhabi", "latitude": "24.466667", "country_iso2": "AE", "timezone": "Asia/Dubai", "geoname_id": "292968", "longitude": "54.366667", "iata_code": "AUH"}, {"gmt": "10", "city_name": "Aua Island", "latitude": "-1.458333", "country_iso2": "PG", "timezone": "Pacific/Port_Moresby", "geoname_id": null, "longitude": "143.075", "iata_code": "AUI"}, {"gmt": "10", "city_name": "Ambunti", "latitude": "-4.25", "country_iso2": "PG", "timezone": "Pacific/Port_Moresby", "geoname_id": "2100933", "longitude": "142.85", "iata_code": "AUJ"}, {"gmt": "-9", "city_name": "Alakanuk", "latitude": "62.689167", "country_iso2": "US", "timezone": "America/Nome", "geoname_id": "5879057", "longitude": "-164.61084", "iata_code": "AUK"}, {"gmt": "12", "city_name": "Aur Island", "latitude": "8.133333", "country_iso2": "MH", "timezone": "Pacific/Majuro", "geoname_id": null, "longitude": "171.16667", "iata_code": "AUL"}, {"gmt": "-6", "city_name": "Austin", "latitude": "43.666668", "country_iso2": "US", "timezone": "America/Chicago", "geoname_id": "5016884", "longitude": "-92.98333", "iata_code": "AUM"}, {"gmt": "-8", "city_name": "Auburn", "latitude": "38.9", "country_iso2": "US", "timezone": "America/Los_Angeles", "geoname_id": "5389489", "longitude": "-121.066666", "iata_code": "AUN"}, {"gmt": "-6", "city_name": "Auburn", "latitude": "32.63333", "country_iso2": "US", "timezone": "America/Chicago", "geoname_id": "4081644", "longitude": "-85.5", "iata_code": "AUO"}, {"gmt": "10", "city_name": "Agaun", "latitude": "-9.983333", "country_iso2": "PG", "timezone": "Pacific/Port_Moresby", "geoname_id": "2085070", "longitude": "149.58333", "iata_code": "AUP"}, {"gmt": "-9:30", "city_name": "Atuona", "latitude": "-9.769324", "country_iso2": "PF", "timezone": "Pacific/Marquesas", "geoname_id": "4020109", "longitude": "-139.00978", "iata_code": "AUQ"}, {"gmt": "1", "city_name": "Aurillac", "latitude": "44.8975", "country_iso2": "FR", "timezone": "Europe/Paris", "geoname_id": "3036016", "longitude": "2.418056", "iata_code": "AUR"}, {"gmt": "-6", "city_name": "Austin", "latitude": "30.267153", "country_iso2": "US", "timezone": "America/Chicago", "geoname_id": "4671654", "longitude": "-97.743061", "iata_code": "AUS"}, {"gmt": "9", "city_name": "Atauro", "latitude": "-8.216667", "country_iso2": "ID", "timezone": "Asia/Dili", "geoname_id": "1645457", "longitude": "125.583336", "iata_code": "AUT"}, {"gmt": "10", "city_name": "Aurukun Mission", "latitude": "-13.166667", "country_iso2": "AU", "timezone": "Australia/Brisbane", "geoname_id": "2144209", "longitude": "142.25", "iata_code": "AUU"}, {"gmt": "10", "city_name": "Aumo", "latitude": "-5.716667", "country_iso2": "PG", "timezone": "Pacific/Port_Moresby", "geoname_id": null, "longitude": "148.43333", "iata_code": "AUV"}, {"gmt": "-6", "city_name": "Wausau", "latitude": "44.923332", "country_iso2": "US", "timezone": "America/Chicago", "geoname_id": "5278131", "longitude": "-89.623055", "iata_code": "AUW"}, {"gmt": "-3", "city_name": "Araguaina", "latitude": "-7.2", "country_iso2": "BR", "timezone": "America/Araguaina", "geoname_id": "3407357", "longitude": "-48.2", "iata_code": "AUX"}, {"gmt": "11", "city_name": "Aneityum", "latitude": "-20.333332", "country_iso2": "VU", "timezone": "Pacific/Efate", "geoname_id": "2136499", "longitude": "169.66667", "iata_code": "AUY"}, {"gmt": "-6", "city_name": "Aurora", "latitude": "41.75", "country_iso2": "US", "timezone": "America/Chicago", "geoname_id": "4887398", "longitude": "-88.316666", "iata_code": "AUZ"}, {"gmt": "8", "city_name": "An Shun", "latitude": "26.257221", "country_iso2": "CN", "timezone": "Asia/Chongqing", "geoname_id": "1809461", "longitude": "105.87278", "iata_code": "AVA"}, {"gmt": "1", "city_name": "Aviano", "latitude": "46.033333", "country_iso2": "IT", "timezone": "Europe/Rome", "geoname_id": "3164603", "longitude": "12.6", "iata_code": "AVB"}, {"gmt": "9.30", "city_name": "Auvergne", "latitude": "-15.65", "country_iso2": "AU", "timezone": "Australia/Darwin", "geoname_id": null, "longitude": "130.01666", "iata_code": "AVG"}, {"gmt": "-5", "city_name": "Ciego De Avila", "latitude": "22.025", "country_iso2": "CU", "timezone": "America/Havana", "geoname_id": null, "longitude": "-78.79139", "iata_code": "AVI"}, {"gmt": "8", "city_name": "Arvaikheer", "latitude": "46.266666", "country_iso2": "MN", "timezone": "Asia/Ulaanbaatar", "geoname_id": null, "longitude": "102.78333", "iata_code": "AVK"}, {"gmt": "-5", "city_name": "Fletcher", "latitude": "35.43508", "country_iso2": "US", "timezone": "America/New_York", "geoname_id": "4453066", "longitude": "-82.537315", "iata_code": "AVL"}, {"gmt": "1", "city_name": "Avignon", "latitude": "43.949317", "country_iso2": "FR", "timezone": "Europe/Paris", "geoname_id": "3035681", "longitude": "4.805528", "iata_code": "AVN"}, {"gmt": "-5", "city_name": "Avon Park", "latitude": "27.6", "country_iso2": "US", "timezone": "America/New_York", "geoname_id": "4160983", "longitude": "-81.51667", "iata_code": "AVO"}, {"gmt": "-5", "city_name": "Wilkes-Barre", "latitude": "41.245915", "country_iso2": "US", "timezone": "America/New_York", "geoname_id": "5219488", "longitude": "-75.881308", "iata_code": "AVP"}, {"gmt": "11", "city_name": "Avu Avu", "latitude": "-9.833333", "country_iso2": "SB", "timezone": "Pacific/Guadalcanal", "geoname_id": "2109675", "longitude": "160.38333", "iata_code": "AVU"}, {"gmt": "-8", "city_name": "Avalon", "latitude": "33.340833", "country_iso2": "US", "timezone": "America/Los_Angeles", "geoname_id": "5368361", "longitude": "-118.327778", "iata_code": "AVX"}, {"gmt": "3", "city_name": "Awassa", "latitude": "7.061111", "country_iso2": "ET", "timezone": "Africa/Addis_Ababa", "geoname_id": null, "longitude": "38.4875", "iata_code": "AWA"}, {"gmt": "10", "city_name": "Awaba", "latitude": "-8.016667", "country_iso2": "PG", "timezone": "Pacific/Port_Moresby", "geoname_id": null, "longitude": "142.75", "iata_code": "AWB"}, {"gmt": "11", "city_name": "Aniwa", "latitude": "-19.25", "country_iso2": "VU", "timezone": "Pacific/Efate", "geoname_id": "2136256", "longitude": "169.5", "iata_code": "AWD"}, {"gmt": "1", "city_name": "Alowe", "latitude": "-0.75", "country_iso2": "GA", "timezone": "Africa/Libreville", "geoname_id": null, "longitude": "9.45", "iata_code": "AWE"}, {"gmt": "12", "city_name": "Wake Island", "latitude": "19.283333", "country_iso2": "UM", "timezone": "Pacific/Wake", "geoname_id": null, "longitude": "166.63333", "iata_code": "AWK"}, {"gmt": "-6", "city_name": "West Memphis", "latitude": "35.13333", "country_iso2": "US", "timezone": "America/Chicago", "geoname_id": "4641239", "longitude": "-90.183334", "iata_code": "AWM"}, {"gmt": "9.30", "city_name": "Alton Downs", "latitude": "-26.25", "country_iso2": "AU", "timezone": "Australia/Adelaide", "geoname_id": null, "longitude": "138.66667", "iata_code": "AWN"}, {"gmt": "9.30", "city_name": "Austral Downs", "latitude": "-20.5", "country_iso2": "AU", "timezone": "Australia/Darwin", "geoname_id": null, "longitude": "137.75", "iata_code": "AWP"}, {"gmt": "10", "city_name": "Awar", "latitude": "-4.124167", "country_iso2": "PG", "timezone": "Pacific/Port_Moresby", "geoname_id": null, "longitude": "144.87029", "iata_code": "AWR"}, {"gmt": "3.30", "city_name": "Ahwaz", "latitude": "31.34292", "country_iso2": "IR", "timezone": "Asia/Tehran", "geoname_id": null, "longitude": "48.74668", "iata_code": "AWZ"}, {"gmt": "-4", "city_name": "Anguilla", "latitude": "18.216667", "country_iso2": "AI", "timezone": "America/Anguilla", "geoname_id": "3573374", "longitude": "-63.066666", "iata_code": "AXA"}, {"gmt": "-5", "city_name": "Alexandria Bay", "latitude": "44.2525", "country_iso2": "US", "timezone": "America/New_York", "geoname_id": "5106950", "longitude": "-75.90139", "iata_code": "AXB"}, {"gmt": "10", "city_name": "Aramac", "latitude": "-22.958055", "country_iso2": "AU", "timezone": "Australia/Brisbane", "geoname_id": null, "longitude": "145.2425", "iata_code": "AXC"}, {"gmt": "2", "city_name": "Alexandroupolis", "latitude": "40.856785", "country_iso2": "GR", "timezone": "Europe/Athens", "geoname_id": "736928", "longitude": "25.944893", "iata_code": "AXD"}, {"gmt": "-3", "city_name": "Xanxere", "latitude": "-26.883333", "country_iso2": "BR", "timezone": "America/Sao_Paulo", "geoname_id": "3466296", "longitude": "-52.38333", "iata_code": "AXE"}, {"gmt": "-6", "city_name": "Algona", "latitude": "43.066666", "country_iso2": "US", "timezone": "America/Chicago", "geoname_id": "4866445", "longitude": "-94.23333", "iata_code": "AXG"}, {"gmt": "3", "city_name": "Ataq", "latitude": "13.866667", "country_iso2": "YE", "timezone": "Asia/Aden", "geoname_id": null, "longitude": "46.3", "iata_code": "AXK"}, {"gmt": "9.30", "city_name": "Alexandria", "latitude": "-19.083332", "country_iso2": "AU", "timezone": "Australia/Darwin", "geoname_id": null, "longitude": "136.66667", "iata_code": "AXL"}, {"gmt": "-5", "city_name": "Armenia", "latitude": "4.452869", "country_iso2": "CO", "timezone": "America/Bogota", "geoname_id": "3689560", "longitude": "-75.76804", "iata_code": "AXM"}, {"gmt": "-6", "city_name": "Alexandria", "latitude": "45.86722", "country_iso2": "US", "timezone": "America/Chicago", "geoname_id": "5016108", "longitude": "-95.394165", "iata_code": "AXN"}, {"gmt": "-5", "city_name": "Spring Point", "latitude": "22.45", "country_iso2": "BS", "timezone": "America/Nassau", "geoname_id": "3571370", "longitude": "-73.96667", "iata_code": "AXP"}, {"gmt": "-10", "city_name": "Arutua", "latitude": "-15.25", "country_iso2": "PF", "timezone": "Pacific/Tahiti", "geoname_id": null, "longitude": "-146.75", "iata_code": "AXR"}, {"gmt": "9", "city_name": "Akita", "latitude": "39.61177", "country_iso2": "JP", "timezone": "Asia/Tokyo", "geoname_id": "2113719", "longitude": "140.22015", "iata_code": "AXT"}, {"gmt": "3", "city_name": "Axum", "latitude": "14.120833", "country_iso2": "ET", "timezone": "Africa/Addis_Ababa", "geoname_id": null, "longitude": "38.716667", "iata_code": "AXU"}, {"gmt": "-5", "city_name": "Wapakoneta", "latitude": "40.566666", "country_iso2": "US", "timezone": "America/New_York", "geoname_id": "5175670", "longitude": "-84.2", "iata_code": "AXV"}, {"gmt": "-7", "city_name": "Angel Fire", "latitude": "36.416668", "country_iso2": "US", "timezone": "America/Denver", "geoname_id": "5455214", "longitude": "-105.28333", "iata_code": "AXX"}, {"gmt": "-5", "city_name": "Ayapel", "latitude": "8.316667", "country_iso2": "CO", "timezone": "America/Bogota", "geoname_id": "3689381", "longitude": "-75.15", "iata_code": "AYA"}, {"gmt": "-5", "city_name": "Ayacucho", "latitude": "8.6", "country_iso2": "CO", "timezone": "America/Bogota", "geoname_id": "3690465", "longitude": "-73.61667", "iata_code": "AYC"}, {"gmt": "9.30", "city_name": "Alroy Downs", "latitude": "-19.3", "country_iso2": "AU", "timezone": "Australia/Darwin", "geoname_id": null, "longitude": "135.95", "iata_code": "AYD"}, {"gmt": "-5", "city_name": "Fort Devens", "latitude": "42.55", "country_iso2": "US", "timezone": "America/New_York", "geoname_id": "7257567", "longitude": "-71.6", "iata_code": "AYE"}, {"gmt": "-5", "city_name": "Yaguara", "latitude": "1.533333", "country_iso2": "CO", "timezone": "America/Bogota", "geoname_id": null, "longitude": "-73.933334", "iata_code": "AYG"}, {"gmt": "-5", "city_name": "Yari", "latitude": "-0.333333", "country_iso2": "CO", "timezone": "America/Bogota", "geoname_id": "3665757", "longitude": "-72.333336", "iata_code": "AYI"}, {"gmt": "6", "city_name": "Arkalyk", "latitude": "50.316666", "country_iso2": "KZ", "timezone": "Asia/Almaty", "geoname_id": null, "longitude": "66.96667", "iata_code": "AYK"}, {"gmt": "9.30", "city_name": "Anthony Lagoon", "latitude": "-18.033333", "country_iso2": "AU", "timezone": "Australia/Darwin", "geoname_id": null, "longitude": "135.53334", "iata_code": "AYL"}, {"gmt": "8", "city_name": "Anyang", "latitude": "36.1", "country_iso2": "CN", "timezone": "Asia/Shanghai", "geoname_id": "1785294", "longitude": "114.35", "iata_code": "AYN"}, {"gmt": "-4", "city_name": "Ayolas", "latitude": "-27.366667", "country_iso2": "PY", "timezone": "America/Asuncion", "geoname_id": "3439378", "longitude": "-56.85", "iata_code": "AYO"}, {"gmt": "-5", "city_name": "Ayacucho", "latitude": "-13.197222", "country_iso2": "PE", "timezone": "America/Lima", "geoname_id": "3947019", "longitude": "-74.24722", "iata_code": "AYP"}, {"gmt": "9.30", "city_name": "Ayers Rock", "latitude": "-25.190878", "country_iso2": "AU", "timezone": "Australia/Darwin", "geoname_id": null, "longitude": "130.97658", "iata_code": "AYQ"}, {"gmt": "10", "city_name": "Ayr", "latitude": "-19.596666", "country_iso2": "AU", "timezone": "Australia/Brisbane", "geoname_id": "2146142", "longitude": "147.32445", "iata_code": "AYR"}, {"gmt": "-5", "city_name": "Waycross", "latitude": "31.248611", "country_iso2": "US", "timezone": "America/New_York", "geoname_id": "4229763", "longitude": "-82.39667", "iata_code": "AYS"}, {"gmt": "3", "city_name": "Antalya", "latitude": "36.89928", "country_iso2": "TR", "timezone": "Europe/Istanbul", "geoname_id": "323777", "longitude": "30.80135", "iata_code": "AYT"}, {"gmt": "10", "city_name": "Aiyura", "latitude": "-6.333333", "country_iso2": "PG", "timezone": "Pacific/Port_Moresby", "geoname_id": null, "longitude": "145.9", "iata_code": "AYU"}, {"gmt": "9", "city_name": "Ayawasi", "latitude": "-1.2", "country_iso2": "ID", "timezone": "Asia/Jayapura", "geoname_id": null, "longitude": "132.5", "iata_code": "AYW"}, {"gmt": "5.30", "city_name": "Pothuvil", "latitude": "6.855", "country_iso2": "LK", "timezone": "Asia/Colombo", "geoname_id": "1226371", "longitude": "81.8311", "iata_code": "AYY"}, {"gmt": "-5", "city_name": "Amityville", "latitude": "40.666668", "country_iso2": "US", "timezone": "America/New_York", "geoname_id": null, "longitude": "-73.416664", "iata_code": "AYZ"}, {"gmt": "10", "city_name": "Amazon Bay", "latitude": "-10.15", "country_iso2": "PG", "timezone": "Pacific/Port_Moresby", "geoname_id": null, "longitude": "148.81667", "iata_code": "AZB"}], [{"gmt": "3.30", "city_name": "Yazd", "latitude": "31.903603", "country_iso2": "IR", "timezone": "Asia/Tehran", "geoname_id": "111822", "longitude": "54.283264", "iata_code": "AZD"}, {"gmt": "-6", "city_name": "Apatzingan", "latitude": "19.068056", "country_iso2": "MX", "timezone": "America/Mexico_City", "geoname_id": null, "longitude": "-102.352776", "iata_code": "AZG"}, {"gmt": "-4", "city_name": "Sapezal", "latitude": "-13.47", "country_iso2": "BR", "timezone": "America/Cuiaba", "geoname_id": null, "longitude": "-58.85", "iata_code": "AZL"}, {"gmt": "5", "city_name": "Andizhan", "latitude": "40.733334", "country_iso2": "UZ", "timezone": "Asia/Tashkent", "geoname_id": null, "longitude": "72.3", "iata_code": "AZN"}, {"gmt": "-5", "city_name": "Kalamazoo", "latitude": "42.239964", "country_iso2": "US", "timezone": "America/Detroit", "geoname_id": "4997787", "longitude": "-85.55656", "iata_code": "AZO"}, {"gmt": "1", "city_name": "Adrar", "latitude": "27.883333", "country_iso2": "DZ", "timezone": "Africa/Algiers", "geoname_id": null, "longitude": "-0.283333", "iata_code": "AZR"}, {"gmt": "-4", "city_name": "El Catey", "latitude": "19.270555", "country_iso2": "DO", "timezone": "America/Santo_Domingo", "geoname_id": "3500243", "longitude": "-69.736946", "iata_code": "AZS"}, {"gmt": "-5", "city_name": "Zapatoca", "latitude": "6.866667", "country_iso2": "CO", "timezone": "America/Bogota", "geoname_id": "3665587", "longitude": "-73.25", "iata_code": "AZT"}, {"gmt": "1", "city_name": "Ambriz", "latitude": "-7.883333", "country_iso2": "AO", "timezone": "Africa/Luanda", "geoname_id": null, "longitude": "13.15", "iata_code": "AZZ"}, {"gmt": "10", "city_name": "Bialla", "latitude": "-5.316667", "country_iso2": "PG", "timezone": "Pacific/Port_Moresby", "geoname_id": null, "longitude": "151.03334", "iata_code": "BAA"}, {"gmt": "-5", "city_name": "Barranca De Upia", "latitude": "4.583333", "country_iso2": "CO", "timezone": "America/Bogota", "geoname_id": "3665900", "longitude": "-72.96667", "iata_code": "BAC"}, {"gmt": "1", "city_name": "Barcelonnette", "latitude": "44.38333", "country_iso2": "FR", "timezone": "Europe/Paris", "geoname_id": "2990440", "longitude": "6.666667", "iata_code": "BAE"}, {"gmt": "-5", "city_name": "Westfield", "latitude": "42.13333", "country_iso2": "US", "timezone": "America/New_York", "geoname_id": "4939783", "longitude": "-72.75", "iata_code": "BAF"}, {"gmt": "8", "city_name": "Baguio", "latitude": "16.376667", "country_iso2": "PH", "timezone": "Asia/Manila", "geoname_id": "1728930", "longitude": "120.617775", "iata_code": "BAG"}, {"gmt": "3", "city_name": "Manama", "latitude": "26.26918", "country_iso2": "BH", "timezone": "Asia/Bahrain", "geoname_id": "290340", "longitude": "50.62605", "iata_code": "BAH"}, {"gmt": "-6", "city_name": "Buenos Aires", "latitude": "9.166667", "country_iso2": "CR", "timezone": "America/Costa_Rica", "geoname_id": "3625016", "longitude": "-83.333336", "iata_code": "BAI"}, {"gmt": "10", "city_name": "Bali", "latitude": "-4.833333", "country_iso2": "PG", "timezone": "Pacific/Port_Moresby", "geoname_id": null, "longitude": "149.13333", "iata_code": "BAJ"}, {"gmt": "4", "city_name": "Baku", "latitude": "40.43495", "country_iso2": "AZ", "timezone": "Asia/Baku", "geoname_id": "587084", "longitude": "49.867623", "iata_code": "BAK"}, {"gmt": "3", "city_name": "Batman", "latitude": "37.916668", "country_iso2": "TR", "timezone": "Europe/Istanbul", "geoname_id": "321836", "longitude": "41.083332", "iata_code": "BAL"}, {"gmt": "-8", "city_name": "Battle Mountain", "latitude": "40.63333", "country_iso2": "US", "timezone": "America/Los_Angeles", "geoname_id": "5703670", "longitude": "-116.933334", "iata_code": "BAM"}, {"gmt": "2", "city_name": "Basongo", "latitude": "-4.313333", "country_iso2": "CD", "timezone": "Africa/Lubumbashi", "geoname_id": null, "longitude": "20.428057", "iata_code": "BAN"}, {"gmt": "7", "city_name": "Ban Mak Khaen", "latitude": "17.385", "country_iso2": "TH", "timezone": "Asia/Bangkok", "geoname_id": null, "longitude": "102.79278", "iata_code": "BAO"}, {"gmt": "10", "city_name": "Baibara", "latitude": "-10.333333", "country_iso2": "PG", "timezone": "Pacific/Port_Moresby", "geoname_id": null, "longitude": "149.75", "iata_code": "BAP"}, {"gmt": "-5", "city_name": "Barranquilla", "latitude": "10.886398", "country_iso2": "CO", "timezone": "America/Bogota", "geoname_id": "3689147", "longitude": "-74.77618", "iata_code": "BAQ"}, {"gmt": "-9", "city_name": "Baker Island", "latitude": "55.333332", "country_iso2": "US", "timezone": "America/Sitka", "geoname_id": null, "longitude": "-133.6", "iata_code": "BAR"}, {"gmt": "11", "city_name": "Balalae", "latitude": "-6.983333", "country_iso2": "SB", "timezone": "Pacific/Guadalcanal", "geoname_id": null, "longitude": "155.88333", "iata_code": "BAS"}, {"gmt": "-3", "city_name": "Barretos", "latitude": "-20.55", "country_iso2": "BR", "timezone": "America/Sao_Paulo", "geoname_id": "3470451", "longitude": "-48.55", "iata_code": "BAT"}, {"gmt": "8", "city_name": "Baotou", "latitude": "40.563328", "country_iso2": "CN", "timezone": "Asia/Shanghai", "geoname_id": "2038432", "longitude": "110.0009", "iata_code": "BAV"}, {"gmt": "1", "city_name": "Biawonque", "latitude": "-0.666667", "country_iso2": "GA", "timezone": "Africa/Libreville", "geoname_id": null, "longitude": "146.35", "iata_code": "BAW"}, {"gmt": "6", "city_name": "Barnaul", "latitude": "53.361088", "country_iso2": "RU", "timezone": "Asia/Omsk", "geoname_id": "1510853", "longitude": "83.547646", "iata_code": "BAX"}, {"gmt": "2", "city_name": "Baia Mare", "latitude": "47.65", "country_iso2": "RO", "timezone": "Europe/Bucharest", "geoname_id": "685826", "longitude": "23.466667", "iata_code": "BAY"}, {"gmt": "-4", "city_name": "Barbelos", "latitude": "-0.966944", "country_iso2": "BR", "timezone": "America/Manaus", "geoname_id": null, "longitude": "-62.933613", "iata_code": "BAZ"}, {"gmt": "-4", "city_name": "Balmaceda", "latitude": "-45.916668", "country_iso2": "CL", "timezone": "America/Santiago", "geoname_id": "3898880", "longitude": "-71.695", "iata_code": "BBA"}, {"gmt": "-6", "city_name": "Benson", "latitude": "45.316666", "country_iso2": "US", "timezone": "America/Chicago", "geoname_id": "5016108", "longitude": "-95.6", "iata_code": "BBB"}, {"gmt": "-6", "city_name": "Bay City", "latitude": "28.983334", "country_iso2": "US", "timezone": "America/Chicago", "geoname_id": "4829307", "longitude": "-95.96667", "iata_code": "BBC"}, {"gmt": "-6", "city_name": "Brady", "latitude": "31.133333", "country_iso2": "US", "timezone": "America/Chicago", "geoname_id": "4676798", "longitude": "-99.333336", "iata_code": "BBD"}, {"gmt": "-5", "city_name": "Burlington", "latitude": "42.5", "country_iso2": "US", "timezone": "America/New_York", "geoname_id": null, "longitude": "-71.183334", "iata_code": "BBF"}, {"gmt": "12", "city_name": "Butaritari", "latitude": "3.166667", "country_iso2": "KI", "timezone": "Pacific/Tarawa", "geoname_id": null, "longitude": "172.75", "iata_code": "BBG"}, {"gmt": "1", "city_name": "Barth", "latitude": "54.363077", "country_iso2": "DE", "timezone": "Europe/Berlin", "geoname_id": "2826287", "longitude": "12.72492", "iata_code": "BBH"},