[[{"longitude": "-145.41667", "city_name": "Anaa", "latitude": "-17.05", "iata_code": "AAA", "timezone": "Pacific/Tahiti", "gmt": "-10", "geoname_id": null, "country_iso2": "PF"}, {"longitude": "141.04167", "city_name": "Arrabury", "latitude": "-26.7", "iata_code": "AAB", "timezone": "Australia/Brisbane", "gmt": "10", "geoname_id": null, "country_iso2": "AU"}, {"longitude": "33.75", "city_name": "El Arish", "latitude": "31.133333", "iata_code": "AAC", "timezone": "Africa/Cairo", "gmt": "2", "geoname_id": "361546", "country_iso2": "EG"}, {"longitude": "7.811857", "city_name": "Annaba", "latitude": "36.821392", "iata_code": "AAE", "timezone": "Africa/Algiers", "gmt": "1", "geoname_id": "2506999", "country_iso2": "DZ"}, {"longitude": "-84.98333", "city_name": "Apalachicola", "latitude": "29.733334", "iata_code": "AAF", "timezone": "America/Chicago", "gmt": "-6", "geoname_id": "4167695", "country_iso2": "US"}, {"longitude": "-49.79", "city_name": "Arapoti", "latitude": "-24.103611", "iata_code": "AAG", "timezone": "America/Sao_Paulo", "gmt": "-3", "geoname_id": "3471795", "country_iso2": "BR"}, {"longitude": "6.08151", "city_name": "Aachen", "latitude": "50.775438", "iata_code": "AAH", "timezone": "Europe/Berlin", "gmt": "1", "geoname_id": "3247449", "country_iso2": "DE"}, {"longitude": "-46.933334", "city_name": "Arraias", "latitude": "-12.916667", "iata_code": "AAI", "timezone": "America/Araguaina", "gmt": "-3", "geoname_id": null, "country_iso2": "BR"}, {"longitude": "-55.36667", "city_name": "Awaradam", "latitude": "3.9", "iata_code": "AAJ", "timezone": "America/Paramaribo", "gmt": "-3", "geoname_id": null, "country_iso2": "SR"}, {"longitude": "173.58333", "city_name": "Aranuka", "latitude": "0.166667", "iata_code": "AAK", "timezone": "Pacific/Tarawa", "gmt": "12", "geoname_id": null, "country_iso2": "KI"}, {"longitude": "9.917771", "city_name": "Aalborg", "latitude": "57.028811", "iata_code": "AAL", "timezone": "Europe/Copenhagen", "gmt": "1", "geoname_id": "2624886", "country_iso2": "DK"}, {"longitude": "31.533333", "city_name": "Mala Mala", "latitude": "-24.8", "iata_code": "AAM", "timezone": "Africa/Johannesburg", "gmt": "2", "geoname_id": "954955", "country_iso2": "ZA"}, {"longitude": "55.744722", "city_name": "Al Ain", "latitude": "24.2075", "iata_code": "AAN", "timezone": "Asia/Dubai", "gmt": "4", "geoname_id": "292913", "country_iso2": "AE"}, {"longitude": "-64.46389", "city_name": "Anaco", "latitude": "9.431944", "iata_code": "AAO", "timezone": "America/Caracas", "gmt": "-4", "geoname_id": "3486270", "country_iso2": "VE"}, {"longitude": "37.316666", "city_name": "Anapa", "latitude": "44.9", "iata_code": "AAQ", "timezone": "Europe/Moscow", "gmt": "3", "geoname_id": "582182", "country_iso2": "RU"}, {"longitude": "10.203921", "city_name": "Aarhus", "latitude": "56.162939", "iata_code": "AAR", "timezone": "Europe/Copenhagen", "gmt": "1", "geoname_id": "2611664", "country_iso2": "DK"}, {"longitude": "139.25", "city_name": "Apalapsili", "latitude": "-3.916667", "iata_code": "AAS", "timezone": "Asia/Jayapura", "gmt": "9", "geoname_id": null, "country_iso2": "ID"}, {"longitude": "88.08444", "city_name": "Altay", "latitude": "47.750362", "iata_code": "AAT", "timezone": "Asia/Shanghai", "gmt": "8", "geoname_id": "1529651", "country_iso2": "CN"}, {"longitude": "-172.6", "city_name": "Asau", "latitude": "-13.458333", "iata_code": "AAU", "timezone": "Pacific/Apia", "gmt": "13", "geoname_id": "4035092", "country_iso2": "WS"}, {"longitude": "124.76667", "city_name": "Surallah", "latitude": "6.333333", "iata_code": "AAV", "timezone": "Asia/Manila", "gmt": "8", "geoname_id": null, "country_iso2": "PH"}, {"longitude": "73.25", "city_name": "Abbottabad", "latitude": "34.2", "iata_code": "AAW", "timezone": "Asia/Karachi", "gmt": "5", "geoname_id": null, "country_iso2": "PK"}, {"longitude": "-46.92917", "city_name": "Araxa", "latitude": "-19.568056", "iata_code": "AAX", "timezone": "America/Sao_Paulo", "gmt": "-3", "geoname_id": "3471691", "country_iso2": "BR"}, {"longitude": "52.173256", "city_name": "Al Ghaydah", "latitude": "16.19596", "iata_code": "AAY", "timezone": "Asia/Aden", "gmt": "3", "geoname_id": null, "country_iso2": "YE"}, {"longitude": "-91.5", "city_name": "Quetzaltenango", "latitude": "14.87", "iata_code": "AAZ", "timezone": "America/Guatemala", "gmt": "-6", "geoname_id": "3599699", "country_iso2": "GT"}, {"longitude": "91.5", "city_name": "Abakan", "latitude": "53.716667", "iata_code": "ABA", "timezone": "Asia/Krasnoyarsk", "gmt": "7", "geoname_id": "1512236", "country_iso2": "RU"}, {"longitude": "-1.283333", "city_name": "Asaba", "latitude": "51.666668", "iata_code": "ABB", "timezone": "Europe/London", "gmt": null, "geoname_id": "2640729", "country_iso2": "NG"}, {"longitude": "-1.86007", "city_name": "Albacete", "latitude": "38.997652", "iata_code": "ABC", "timezone": "Europe/Madrid", "gmt": "1", "geoname_id": "2522258", "country_iso2": "ES"}, {"longitude": "48.226597", "city_name": "Abadan", "latitude": "30.363905", "iata_code": "ABD", "timezone": "Asia/Tehran", "gmt": "3.30", "geoname_id": null, "country_iso2": "IR"}, {"longitude": "-75.434364", "city_name": "Allentown", "latitude": "40.651573", "iata_code": "ABE", "timezone": "America/New_York", "gmt": "-5", "geoname_id": "5178127", "country_iso2": "US"}, {"longitude": "173.30417", "city_name": "Abaiang", "latitude": "1.670833", "iata_code": "ABF", "timezone": "Pacific/Tarawa", "gmt": "12", "geoname_id": null, "country_iso2": "KI"}, {"longitude": "143.2", "city_name": "Abingdon", "latitude": "-17.666668", "iata_code": "ABG", "timezone": "Australia/Brisbane", "gmt": "10", "geoname_id": null, "country_iso2": "AU"}, {"longitude": "146.63333", "city_name": "Alpha", "latitude": "-23.65", "iata_code": "ABH", "timezone": "Australia/Brisbane", "gmt": "10", "geoname_id": null, "country_iso2": "AU"}, {"longitude": "-99.733144", "city_name": "Abilene", "latitude": "32.448736", "iata_code": "ABI", "timezone": "America/Chicago", "gmt": "-6", "geoname_id": "4669635", "country_iso2": "US"}, {"longitude": "-3.933015", "city_name": "Abidjan", "latitude": "5.254879", "iata_code": "ABJ", "timezone": "Africa/Abidjan", "gmt": null, "geoname_id": "2293538", "country_iso2": "CI"}, {"longitude": "44.26611", "city_name": "Kabri Dar", "latitude": "6.733889", "iata_code": "ABK", "timezone": "Africa/Addis_Ababa", "gmt": "3", "geoname_id": null, "country_iso2": "ET"}, {"longitude": "-157.84584", "city_name": "Ambler", "latitude": "67.0875", "iata_code": "ABL", "timezone": "America/Anchorage", "gmt": "-9", "geoname_id": null, "country_iso2": "US"}, {"longitude": "142.45033", "city_name": "Bamaga", "latitude": "-10.942619", "iata_code": "ABM", "timezone": "Australia/Brisbane", "gmt": "10", "geoname_id": "2177023", "country_iso2": "AU"}, {"longitude": "-54.083332", "city_name": "Albina", "latitude": "5.5", "iata_code": "ABN", "timezone": "America/Paramaribo", "gmt": "-3", "geoname_id": "3384792", "country_iso2": "SR"}, {"longitude": "-3.216667", "city_name": "Aboisso", "latitude": "5.433333", "iata_code": "ABO", "timezone": "Africa/Abidjan", "gmt": null, "geoname_id": null, "country_iso2": "CI"}, {"longitude": "141.1", "city_name": "Atkamba", "latitude": "-6.066667", "iata_code": "ABP", "timezone": "Pacific/Port_Moresby", "gmt": "10", "geoname_id": null, "country_iso2": "PG"}, {"longitude": "-106.617195", "city_name": "Albuquerque", "latitude": "35.049625", "iata_code": "ABQ", "timezone": "America/Denver", "gmt": "-7", "geoname_id": "5454711", "country_iso2": "US"}, {"longitude": "-98.42611", "city_name": "Aberdeen", "latitude": "45.4525", "iata_code": "ABR", "timezone": "America/Chicago", "gmt": "-6", "geoname_id": "5225857", "country_iso2": "US"}, {"longitude": "31.609774", "city_name": "Abu Simbel", "latitude": "22.367567", "iata_code": "ABS", "timezone": "Africa/Cairo", "gmt": "2", "geoname_id": "362041", "country_iso2": "EG"}, {"longitude": "41.64002", "city_name": "Al-Baha", "latitude": "20.29401", "iata_code": "ABT", "timezone": "Asia/Riyadh", "gmt": "3", "geoname_id": null, "country_iso2": "SA"}, {"longitude": "124.88333", "city_name": "Atambua", "latitude": "-9.133333", "iata_code": "ABU", "timezone": "Asia/Makassar", "gmt": "8", "geoname_id": null, "country_iso2": "ID"}, {"longitude": "7.270447", "city_name": "Abuja", "latitude": "9.004614", "iata_code": "ABV", "timezone": "Africa/Lagos", "gmt": "1", "geoname_id": null, "country_iso2": "NG"}, {"longitude": "148.7", "city_name": "Abau", "latitude": "-10.183333", "iata_code": "ABW", "timezone": "Pacific/Port_Moresby", "gmt": "10", "geoname_id": null, "country_iso2": "PG"}, {"longitude": "146.95453", "city_name": "Albury", "latitude": "-36.069626", "iata_code": "ABX", "timezone": "Australia/Sydney", "gmt": "10", "geoname_id": "2178174", "country_iso2": "AU"}, {"longitude": "-84.155741", "city_name": "Albany", "latitude": "31.578507", "iata_code": "ABY", "timezone": "America/New_York", "gmt": "-5", "geoname_id": "4179320", "country_iso2": "US"}, {"longitude": "-2.095397", "city_name": "Aberdeen", "latitude": "57.147492", "iata_code": "ABZ", "timezone": "Europe/London", "gmt": null, "geoname_id": "2657832", "country_iso2": "GB"}, {"longitude": "-99.75459", "city_name": "Acapulco", "latitude": "16.762403", "iata_code": "ACA", "timezone": "America/Mexico_City", "gmt": "-6", "geoname_id": "3533462", "country_iso2": "MX"}, {"longitude": "-85.21667", "city_name": "Bellaire", "latitude": "44.983334", "iata_code": "ACB", "timezone": "America/Detroit", "gmt": "-5", "geoname_id": "4985583", "country_iso2": "US"}, {"longitude": "-0.171769", "city_name": "Accra", "latitude": "5.60737", "iata_code": "ACC", "timezone": "Africa/Accra", "gmt": null, "geoname_id": "2306104", "country_iso2": "GH"}, {"longitude": "-77.3", "city_name": "Acandi", "latitude": "8.516667", "iata_code": "ACD", "timezone": "America/Bogota", "gmt": "-5", "geoname_id": "3665580", "country_iso2": "CO"}, {"longitude": "-13.609059", "city_name": "Arrecife", "latitude": "28.950668", "iata_code": "ACE", "timezone": "Atlantic/Canary", "gmt": null, "geoname_id": "6355013", "country_iso2": "ES"}, {"longitude": "9.566667", "city_name": "Altenrhein", "latitude": "47.483334", "iata_code": "ACH", "timezone": "Europe/Zurich", "gmt": "1", "geoname_id": "2661775", "country_iso2": "CH"}, {"longitude": "-2.215369", "city_name": "Alderney", "latitude": "49.709347", "iata_code": "ACI", "timezone": "Europe/London", "gmt": null, "geoname_id": "6692041", "country_iso2": "GG"}, {"longitude": "80.38333", "city_name": "Anuradhapura", "latitude": "8.35", "iata_code": "ACJ", "timezone": "Asia/Colombo", "gmt": "5.30", "geoname_id": "1251081", "country_iso2": "LK"}, {"longitude": "-70.05972", "city_name": "Nantucket", "latitude": "41.256668", "iata_code": "ACK", "timezone": "America/New_York", "gmt": "-5", "geoname_id": "4944903", "country_iso2": "US"}, {"longitude": "-73", "city_name": "Aguaclara", "latitude": "4.75", "iata_code": "ACL", "timezone": "America/Bogota", "gmt": "-5", "geoname_id": null, "country_iso2": "CO"}, {"longitude": "-71.833336", "city_name": "Arica", "latitude": "-2", "iata_code": "ACM", "timezone": "America/Bogota", "gmt": "-5", "geoname_id": null, "country_iso2": "CO"}, {"longitude": "-100.916664", "city_name": "Acuna", "latitude": "29.3", "iata_code": "ACN", "timezone": "America/Matamoros", "gmt": "-6", "geoname_id": "3992619", "country_iso2": "MX"}, {"longitude": "46.145115", "city_name": "Sahand", "latitude": "37.347244", "iata_code": "ACP", "timezone": "Asia/Tehran", "gmt": "3.30", "geoname_id": null, "country_iso2": "IR"}, {"longitude": "-72.3", "city_name": "Araracuara", "latitude": "-0.383333", "iata_code": "ACR", "timezone": "America/Bogota", "gmt": "-5", "geoname_id": null, "country_iso2": "CO"}, {"longitude": "90.566666", "city_name": "Achinsk", "latitude": "56.266666", "iata_code": "ACS", "timezone": "Asia/Krasnoyarsk", "gmt": "7", "geoname_id": null, "country_iso2": "RU"}, {"longitude": "-97.14667", "city_name": "Waco", "latitude": "31.549333", "iata_code": "ACT", "timezone": "America/Chicago", "gmt": "-6", "geoname_id": "4739526", "country_iso2": "US"}, {"longitude": "-79.72444", "city_name": "Achutupo", "latitude": "9.576389", "iata_code": "ACU", "timezone": "America/Panama", "gmt": "-5", "geoname_id": null, "country_iso2": "PA"}, {"longitude": "-124.106926", "city_name": "Arcata", "latitude": "40.970913", "iata_code": "ACV", "timezone": "America/Los_Angeles", "gmt": "-8", "geoname_id": "5558953", "country_iso2": "US"}, {"longitude": "104.95944", "city_name": "Xingyi", "latitude": "25.085556", "iata_code": "ACX", "timezone": "Asia/Shanghai", "gmt": "8", "geoname_id": null, "country_iso2": "CN"}, {"longitude": "61.542244", "city_name": "Zabol", "latitude": "31.087694", "iata_code": "ACZ", "timezone": "Asia/Tehran", "gmt": "3.30", "geoname_id": null, "country_iso2": "IR"}, {"longitude": "35.321333", "city_name": "Adana", "latitude": "37", "iata_code": "ADA", "timezone": "Europe/Istanbul", "gmt": "3", "geoname_id": "325363", "country_iso2": "TR"}, {"longitude": "145.73334", "city_name": "Andakombe", "latitude": "-7.133333", "iata_code": "ADC", "timezone": "Pacific/Port_Moresby", "gmt": "10", "geoname_id": "2100827", "country_iso2": "PG"}, {"longitude": "38.7959", "city_name": "Addis Ababa", "latitude": "8.983759", "iata_code": "ADD", "timezone": "Africa/Addis_Ababa", "gmt": "3", "geoname_id": "344979", "country_iso2": "ET"}, {"longitude": "45.037537", "city_name": "Aden", "latitude": "12.826116", "iata_code": "ADE", "timezone": "Asia/Aden", "gmt": "3", "geoname_id": "415189", "country_iso2": "YE"}, {"longitude": "38.266666", "city_name": "Adiyaman", "latitude": "37.75", "iata_code": "ADF", "timezone": "Europe/Istanbul", "gmt": "3", "geoname_id": "325330", "country_iso2": "TR"}, {"longitude": "-84.03333", "city_name": "Adrian", "latitude": "41.9", "iata_code": "ADG", "timezone": "America/Indiana/Indianapolis", "gmt": "-5", "geoname_id": "4917712", "country_iso2": "US"}, {"longitude": "125.4", "city_name": "Aldan", "latitude": "58.6", "iata_code": "ADH", "timezone": "Asia/Yakutsk", "gmt": "9", "geoname_id": null, "country_iso2": "RU"}, {"longitude": "15", "city_name": "Arandis", "latitude": "-22.4", "iata_code": "ADI", "timezone": "Africa/Windhoek", "gmt": "2", "geoname_id": "3352844", "country_iso2": "NA"}, {"longitude": "-176.64473", "city_name": "Adak Island", "latitude": "51.88278", "iata_code": "ADK", "timezone": "America/Adak", "gmt": "-10", "geoname_id": null, "country_iso2": "US"}, {"longitude": "138.599959", "city_name": "Adelaide", "latitude": "-34.928621", "iata_code": "ADL", "timezone": "Australia/Adelaide", "gmt": "9.30", "geoname_id": "2078025", "country_iso2": "AU"}, {"longitude": "-97.01945", "city_name": "Ardmore", "latitude": "34.303055", "iata_code": "ADM", "timezone": "America/Chicago", "gmt": "-6", "geoname_id": "4529469", "country_iso2": "US"}, {"longitude": "-75.933334", "city_name": "Andes", "latitude": "5.666667", "iata_code": "ADN", "timezone": "America/Bogota", "gmt": "-5", "geoname_id": "3674962", "country_iso2": "CO"}, {"longitude": "137.15", "city_name": "Andamooka", "latitude": "-31.016666", "iata_code": "ADO", "timezone": "Australia/Adelaide", "gmt": "9.30", "geoname_id": null, "country_iso2": "AU"}, {"longitude": "81.625275", "city_name": "Ampara", "latitude": "7.336389", "iata_code": "ADP", "timezone": "Asia/Colombo", "gmt": "5.30", "geoname_id": "1251081", "country_iso2": "LK"}, {"longitude": "-152.407222", "city_name": "Kodiak", "latitude": "57.79", "iata_code": "ADQ", "timezone": "America/Anchorage", "gmt": "-9", "geoname_id": "5866583", "country_iso2": "US"}, {"longitude": "-79.566666", "city_name": "Andrews", "latitude": "33.45", "iata_code": "ADR", "timezone": "America/New_York", "gmt": "-5", "geoname_id": "4588718", "country_iso2": "US"}, {"longitude": "-96.666664", "city_name": "Ada", "latitude": "34.8", "iata_code": "ADT", "timezone": "America/Chicago", "gmt": "-6", "geoname_id": "4529096", "country_iso2": "US"}, {"longitude": "48.42125", "city_name": "Ardabil", "latitude": "38.323826", "iata_code": "ADU", "timezone": "Asia/Tehran", "gmt": "3.30", "geoname_id": null, "country_iso2": "IR"}, {"longitude": "-76.86667", "city_name": "Camp Springs", "latitude": "38.816666", "iata_code": "ADW", "timezone": "America/New_York", "gmt": "-5", "geoname_id": null, "country_iso2": "US"}, {"longitude": "-2.866667", "city_name": "St Andrews", "latitude": "56.36667", "iata_code": "ADX", "timezone": "Europe/London", "gmt": null, "geoname_id": "2644581", "country_iso2": "GB"}, {"longitude": "29.05", "city_name": "Alldays", "latitude": "-22.666668", "iata_code": "ADY", "timezone": "Africa/Johannesburg", "gmt": "2", "geoname_id": "981827", "country_iso2": "ZA"}, {"longitude": "-81.70221", "city_name": "San Andres Island", "latitude": "12.586047", "iata_code": "ADZ", "timezone": "America/Bogota", "gmt": "-5", "geoname_id": "3670218", "country_iso2": "CO"}, {"longitude": "173.85", "city_name": "Abemama Atoll", "latitude": "0.483333", "iata_code": "AEA", "timezone": "Pacific/Tarawa", "gmt": "12", "geoname_id": null, "country_iso2": "KI"}, {"longitude": "106.96777", "city_name": "Baise", "latitude": "23.71947", "iata_code": "AEB", "timezone": "Asia/Shanghai", "gmt": "8", "geoname_id": "1794330", "country_iso2": "CN"}, {"longitude": "-152.9", "city_name": "Aleneva", "latitude": "58.033333", "iata_code": "AED", "timezone": "America/Anchorage", "gmt": "-9", "geoname_id": "5879155", "country_iso2": "US"}, {"longitude": "32.96096", "city_name": "Adareil", "latitude": "10.05667", "iata_code": "AEE", "timezone": "Africa/Juba", "gmt": "3", "geoname_id": null, "country_iso2": "SS"}, {"longitude": "99.416664", "city_name": "Aek Godang", "latitude": "1.399722", "iata_code": "AEG", "timezone": "Asia/Jakarta", "gmt": "7", "geoname_id": "1214618", "country_iso2": "ID"}, {"longitude": "20.850834", "city_name": "Abeche", "latitude": "13.851389", "iata_code": "AEH", "timezone": "Africa/Ndjamena", "gmt": "1", "geoname_id": null, "country_iso2": "TD"}, {"longitude": "-5.441301", "city_name": "Algeciras", "latitude": "36.1289", "iata_code": "AEI", "timezone": "Europe/Madrid", "gmt": "1", "geoname_id": "2522013", "country_iso2": "ES"}, {"longitude": "146.28334", "city_name": "Aseki", "latitude": "-7.366667", "iata_code": "AEK", "timezone": "Pacific/Port_Moresby", "gmt": "10", "geoname_id": "2100468", "country_iso2": "PG"}], [{"longitude": "-93.36667", "city_name": "Albert Lea", "latitude": "43.65", "iata_code": "AEL", "timezone": "America/Chicago", "gmt": "-6", "geoname_id": "5016024", "country_iso2": "US"}, {"longitude": "-9.635556", "city_name": "Aioun El Atrouss", "latitude": "16.709167", "iata_code": "AEO", "timezone": "Africa/Nouakchott", "gmt": null, "geoname_id": null, "country_iso2": "MR"}, {"longitude": "39.941105", "city_name": "Sochi", "latitude": "43.44884", "iata_code": "AER", "timezone": "Europe/Moscow", "gmt": "3", "geoname_id": "491422", "country_iso2": "RU"}, {"longitude": "6.116605", "city_name": "Aalesund", "latitude": "62.559643", "iata_code": "AES", "timezone": "Europe/Oslo", "gmt": "1", "geoname_id": "3163392", "country_iso2": "NO"}, {"longitude": "-152.65834", "city_name": "Allakaket", "latitude": "66.56167", "iata_code": "AET", "timezone": "America/Anchorage", "gmt": "-9", "geoname_id": "5879223", "country_iso2": "US"}, {"longitude": "55.041668", "city_name": "Abu Musa", "latitude": "25.8875", "iata_code": "AEU", "timezone": "Asia/Tehran", "gmt": "3.30", "geoname_id": null, "country_iso2": "IR"}, {"longitude": "-92.445137", "city_name": "Alexandria", "latitude": "31.311294", "iata_code": "AEX", "timezone": "America/Chicago", "gmt": "-6", "geoname_id": "4314550", "country_iso2": "US"}, {"longitude": "-18.075068", "city_name": "Akureyri", "latitude": "65.654564", "iata_code": "AEY", "timezone": "Atlantic/Reykjavik", "gmt": null, "geoname_id": "2633274", "country_iso2": "IS"}, {"longitude": "-68.40056", "city_name": "San Rafael", "latitude": "-34.58917", "iata_code": "AFA", "timezone": "America/Argentina/Mendoza", "gmt": "-3", "geoname_id": "3836669", "country_iso2": "AR"}, {"longitude": "26.883333", "city_name": "Port Alfred", "latitude": "-33.583332", "iata_code": "AFD", "timezone": "Africa/Johannesburg", "gmt": "2", "geoname_id": "964432", "country_iso2": "ZA"}, {"longitude": "-75.066666", "city_name": "Amalfi", "latitude": "6.916667", "iata_code": "AFI", "timezone": "America/Bogota", "gmt": "-5", "geoname_id": "3674962", "country_iso2": "CO"}, {"longitude": "-56.104767", "city_name": "Alta Floresta", "latitude": "-9.872456", "iata_code": "AFL", "timezone": "America/Cuiaba", "gmt": "-4", "geoname_id": "6316343", "country_iso2": "BR"}, {"longitude": "-72.066666", "city_name": "Jaffrey", "latitude": "42.833332", "iata_code": "AFN", "timezone": "America/New_York", "gmt": "-5", "geoname_id": "5088061", "country_iso2": "US"}, {"longitude": "-110.933334", "city_name": "Afton", "latitude": "42.733334", "iata_code": "AFO", "timezone": "America/Denver", "gmt": "-7", "geoname_id": "5828648", "country_iso2": "US"}, {"longitude": "148.38333", "city_name": "Afore", "latitude": "-9.133333", "iata_code": "AFR", "timezone": "Pacific/Port_Moresby", "gmt": "10", "geoname_id": "2101332", "country_iso2": "PG"}, {"longitude": "64.233055", "city_name": "Zarafshan", "latitude": "41.61361", "iata_code": "AFS", "timezone": "Asia/Samarkand", "gmt": "5", "geoname_id": null, "country_iso2": "UZ"}, {"longitude": "160.85", "city_name": "Afutara", "latitude": "-9.2", "iata_code": "AFT", "timezone": "Pacific/Guadalcanal", "gmt": "11", "geoname_id": null, "country_iso2": "SB"}, {"longitude": "30.6", "city_name": "Afyon", "latitude": "38.733334", "iata_code": "AFY", "timezone": "Europe/Istanbul", "gmt": "3", "geoname_id": "325303", "country_iso2": "TR"}, {"longitude": "57.60332", "city_name": "Sabzevar", "latitude": "36.171513", "iata_code": "AFZ", "timezone": "Asia/Tehran", "gmt": "3.30", "geoname_id": null, "country_iso2": "IR"}, {"longitude": "-9.555895", "city_name": "Agadir", "latitude": "30.378326", "iata_code": "AGA", "timezone": "Africa/Casablanca", "gmt": null, "geoname_id": "2561668", "country_iso2": "MA"}, {"longitude": "133.86667", "city_name": "Anggi", "latitude": "-1.383333", "iata_code": "AGD", "timezone": "Asia/Jayapura", "gmt": "9", "geoname_id": "1636308", "country_iso2": "ID"}, {"longitude": "7.916667", "city_name": "Wangerooge", "latitude": "53.783333", "iata_code": "AGE", "timezone": "Europe/Berlin", "gmt": "1", "geoname_id": "2814266", "country_iso2": "DE"}, {"longitude": "0.598611", "city_name": "Agen", "latitude": "44.17361", "iata_code": "AGF", "timezone": "Europe/Paris", "gmt": "1", "geoname_id": "3038634", "country_iso2": "FR"}, {"longitude": "144.07388", "city_name": "Angoram", "latitude": "-4.168611", "iata_code": "AGG", "timezone": "Pacific/Port_Moresby", "gmt": "10", "geoname_id": "2100765", "country_iso2": "PG"}, {"longitude": "12.861509", "city_name": "Angelholm", "latitude": "56.2432", "iata_code": "AGH", "timezone": "Europe/Stockholm", "gmt": "1", "geoname_id": "2725900", "country_iso2": "SE"}, {"longitude": "-56.833332", "city_name": "Wageningen", "latitude": "5.833333", "iata_code": "AGI", "timezone": "America/Paramaribo", "gmt": "-3", "geoname_id": null, "country_iso2": "SR"}, {"longitude": "127.23805", "city_name": "Aguni", "latitude": "26.589722", "iata_code": "AGJ", "timezone": "Asia/Tokyo", "gmt": "9", "geoname_id": "1856035", "country_iso2": "JP"}, {"longitude": "143.84666", "city_name": "Kagua", "latitude": "-6.403333", "iata_code": "AGK", "timezone": "Pacific/Port_Moresby", "gmt": "10", "geoname_id": "2095091", "country_iso2": "PG"}, {"longitude": "149.15527", "city_name": "Wanigela", "latitude": "-9.340278", "iata_code": "AGL", "timezone": "Pacific/Port_Moresby", "gmt": "10", "geoname_id": "2132313", "country_iso2": "PG"}, {"longitude": "-37.683334", "city_name": "Tasiilaq", "latitude": "65.6", "iata_code": "AGM", "timezone": "America/Godthab", "gmt": "-3", "geoname_id": "3424607", "country_iso2": "GL"}, {"longitude": "-134.58333", "city_name": "Angoon", "latitude": "57.503887", "iata_code": "AGN", "timezone": "America/Juneau", "gmt": "-9", "geoname_id": "5844374", "country_iso2": "US"}, {"longitude": "-93.23333", "city_name": "Magnolia", "latitude": "33.266666", "iata_code": "AGO", "timezone": "America/Chicago", "gmt": "-6", "geoname_id": "4115181", "country_iso2": "US"}, {"longitude": "-4.420016", "city_name": "Malaga", "latitude": "36.719648", "iata_code": "AGP", "timezone": "Europe/Madrid", "gmt": "1", "geoname_id": "2514256", "country_iso2": "ES"}, {"longitude": "21.351944", "city_name": "Agrinion", "latitude": "38.604168", "iata_code": "AGQ", "timezone": "Europe/Athens", "gmt": "2", "geoname_id": "252946", "country_iso2": "GR"}, {"longitude": "77.962776", "city_name": "Agra", "latitude": "27.158333", "iata_code": "AGR", "timezone": "Asia/Kolkata", "gmt": "5.30", "geoname_id": "1279261", "country_iso2": "IN"}, {"longitude": "-82.00967", "city_name": "Augusta", "latitude": "33.474246", "iata_code": "AGS", "timezone": "America/New_York", "gmt": "-5", "geoname_id": "4180531", "country_iso2": "US"}, {"longitude": "-54.833332", "city_name": "Ciudad Del Este", "latitude": "-25.5", "iata_code": "AGT", "timezone": "America/Asuncion", "gmt": "-4", "geoname_id": "3439101", "country_iso2": "PY"}, {"longitude": "-102.31374", "city_name": "Aguascalientes", "latitude": "21.701416", "iata_code": "AGU", "timezone": "America/Mexico_City", "gmt": "-6", "geoname_id": "4019233", "country_iso2": "MX"}, {"longitude": "-69.23333", "city_name": "Acarigua", "latitude": "9.552222", "iata_code": "AGV", "timezone": "America/Caracas", "gmt": "-4", "geoname_id": null, "country_iso2": "VE"}, {"longitude": "142.15", "city_name": "Agnew", "latitude": "-12.15", "iata_code": "AGW", "timezone": "Australia/Brisbane", "gmt": "10", "geoname_id": "2144209", "country_iso2": "AU"}, {"longitude": "72.17987", "city_name": "Agatti Island", "latitude": "10.828967", "iata_code": "AGX", "timezone": "Asia/Kolkata", "gmt": "5.30", "geoname_id": null, "country_iso2": "IN"}, {"longitude": "18.85", "city_name": "Aggeneys", "latitude": "-29.05", "iata_code": "AGZ", "timezone": "Africa/Johannesburg", "gmt": "2", "geoname_id": null, "country_iso2": "ZA"}, {"longitude": "42.657574", "city_name": "Abha", "latitude": "18.23429", "iata_code": "AHB", "timezone": "Asia/Riyadh", "gmt": "3", "geoname_id": "110690", "country_iso2": "SA"}, {"longitude": "-120.13333", "city_name": "Herlong", "latitude": "40.15", "iata_code": "AHC", "timezone": "America/Los_Angeles", "gmt": "-8", "geoname_id": "5565015", "country_iso2": "US"}, {"longitude": "-146.25694", "city_name": "Ahe", "latitude": "-14.428056", "iata_code": "AHE", "timezone": "Pacific/Tahiti", "gmt": "-10", "geoname_id": null, "country_iso2": "PF"}, {"longitude": "-99.9", "city_name": "Arapahoe", "latitude": "40.3", "iata_code": "AHF", "timezone": "America/Chicago", "gmt": "-6", "geoname_id": "5071348", "country_iso2": "US"}, {"longitude": "-92.35", "city_name": "Amery", "latitude": "45.3", "iata_code": "AHH", "timezone": "America/Chicago", "gmt": "-6", "geoname_id": "5037649", "country_iso2": "US"}, {"longitude": "128.91667", "city_name": "Amahai", "latitude": "-3.333333", "iata_code": "AHI", "timezone": "Asia/Jayapura", "gmt": "9", "geoname_id": "1651531", "country_iso2": "ID"}, {"longitude": "-59.316666", "city_name": "Aishalton", "latitude": "2.483333", "iata_code": "AHL", "timezone": "America/Guyana", "gmt": "-4", "geoname_id": null, "country_iso2": "GY"}, {"longitude": null, "city_name": "Ashland", "latitude": null, "iata_code": "AHM", "timezone": "America/Los_Angeles", "gmt": "-8", "geoname_id": null, "country_iso2": "US"}, {"longitude": "-83.32472", "city_name": "Athens", "latitude": "33.95195", "iata_code": "AHN", "timezone": "America/New_York", "gmt": "-5", "geoname_id": "4180386", "country_iso2": "US"}, {"longitude": "8.295891", "city_name": "Alghero", "latitude": "40.630405", "iata_code": "AHO", "timezone": "Europe/Rome", "gmt": "1", "geoname_id": "3183284", "country_iso2": "IT"}, {"longitude": "-84.425", "city_name": "Ahuas", "latitude": "15.441667", "iata_code": "AHS", "timezone": "America/Tegucigalpa", "gmt": "-6", "geoname_id": null, "country_iso2": "HN"}, {"longitude": "179", "city_name": "Amchitka", "latitude": "51.5", "iata_code": "AHT", "timezone": "America/Adak", "gmt": "-10", "geoname_id": null, "country_iso2": "US"}, {"longitude": "-3.836944", "city_name": "Al Hoceima", "latitude": "35.17972", "iata_code": "AHU", "timezone": "Africa/Casablanca", "gmt": null, "geoname_id": "2558545", "country_iso2": "MA"}, {"longitude": "48.74668", "city_name": "Saih Rawl", "latitude": "31.34292", "iata_code": "AHW", "timezone": "Asia/Muscat", "gmt": "4", "geoname_id": null, "country_iso2": "OM"}, {"longitude": "45.533333", "city_name": "Ambatolahy", "latitude": "-20.016666", "iata_code": "AHY", "timezone": "Indian/Antananarivo", "gmt": "3", "geoname_id": null, "country_iso2": "MG"}, {"longitude": "6.083333", "city_name": "Alpe D Huez", "latitude": "45.083332", "iata_code": "AHZ", "timezone": "Europe/Paris", "gmt": "1", "geoname_id": "3008406", "country_iso2": "FR"}, {"longitude": "-102.80666", "city_name": "Alliance", "latitude": "42.051666", "iata_code": "AIA", "timezone": "America/Denver", "gmt": "-7", "geoname_id": "5693164", "country_iso2": "US"}, {"longitude": "-132.38333", "city_name": "Anita Bay", "latitude": "56.233334", "iata_code": "AIB", "timezone": "America/Sitka", "gmt": "-9", "geoname_id": null, "country_iso2": "US"}, {"longitude": "170.83333", "city_name": "Airok", "latitude": "7.5", "iata_code": "AIC", "timezone": "Pacific/Majuro", "gmt": "12", "geoname_id": null, "country_iso2": "MH"}, {"longitude": "-85.683334", "city_name": "Anderson", "latitude": "40.166668", "iata_code": "AID", "timezone": "America/Indiana/Indianapolis", "gmt": "-5", "geoname_id": "4917592", "country_iso2": "US"}, {"longitude": "144.66667", "city_name": "Aiome", "latitude": "-5.166667", "iata_code": "AIE", "timezone": "Pacific/Port_Moresby", "gmt": "10", "geoname_id": null, "country_iso2": "PG"}, {"longitude": "-50.416668", "city_name": "Assis", "latitude": "-22.666668", "iata_code": "AIF", "timezone": "America/Sao_Paulo", "gmt": "-3", "geoname_id": "3471374", "country_iso2": "BR"}, {"longitude": "23.25", "city_name": "Yalinga", "latitude": "6.516667", "iata_code": "AIG", "timezone": "Africa/Bangui", "gmt": "1", "geoname_id": null, "country_iso2": "CF"}, {"longitude": "141.26639", "city_name": "Aiambak", "latitude": "-7.348611", "iata_code": "AIH", "timezone": "Pacific/Port_Moresby", "gmt": "10", "geoname_id": "2101258", "country_iso2": "PG"}, {"longitude": "42.716667", "city_name": "Alisabieh", "latitude": "11.15", "iata_code": "AII", "timezone": "Africa/Djibouti", "gmt": "3", "geoname_id": null, "country_iso2": "DJ"}, {"longitude": "-81.71667", "city_name": "Aiken", "latitude": "33.566666", "iata_code": "AIK", "timezone": "America/New_York", "gmt": "-5", "geoname_id": "4575352", "country_iso2": "US"}, {"longitude": "-78.083336", "city_name": "Ailigandi", "latitude": "9.25", "iata_code": "AIL", "timezone": "America/Panama", "gmt": "-5", "geoname_id": null, "country_iso2": "PA"}, {"longitude": "169.98334", "city_name": "Ailuk Island", "latitude": "10.2", "iata_code": "AIM", "timezone": "Pacific/Majuro", "gmt": "12", "geoname_id": null, "country_iso2": "MH"}, {"longitude": "-160.03334", "city_name": "Wainwright", "latitude": "70.63333", "iata_code": "AIN", "timezone": "America/Anchorage", "gmt": "-9", "geoname_id": "5877543", "country_iso2": "US"}, {"longitude": "-95.01667", "city_name": "Atlantic", "latitude": "41.4", "iata_code": "AIO", "timezone": "America/Chicago", "gmt": "-6", "geoname_id": "5074472", "country_iso2": "US"}, {"longitude": "168.81667", "city_name": "Ailinglapalap Island", "latitude": "7.266667", "iata_code": "AIP", "timezone": "Pacific/Majuro", "gmt": "12", "geoname_id": null, "country_iso2": "MH"}, {"longitude": "-59.38333", "city_name": "Aripuana", "latitude": "-10.25", "iata_code": "AIR", "timezone": "America/Cuiaba", "gmt": "-4", "geoname_id": null, "country_iso2": "BR"}, {"longitude": "176.83333", "city_name": "Arorae Island", "latitude": "-2.65", "iata_code": "AIS", "timezone": "Pacific/Tarawa", "gmt": "12", "geoname_id": null, "country_iso2": "KI"}, {"longitude": "-159.767", "city_name": "Aitutaki", "latitude": "-18.829443", "iata_code": "AIT", "timezone": "Pacific/Rarotonga", "gmt": "-10", "geoname_id": null, "country_iso2": "CK"}, {"longitude": "-158.1", "city_name": "Atiu Island", "latitude": "-20.033333", "iata_code": "AIU", "timezone": "Pacific/Rarotonga", "gmt": "-10", "geoname_id": null, "country_iso2": "CK"}, {"longitude": "-88.15", "city_name": "Aliceville", "latitude": "33.13333", "iata_code": "AIV", "timezone": "America/Chicago", "gmt": "-6", "geoname_id": "4829885", "country_iso2": "US"}, {"longitude": "17.583332", "city_name": "Ai-ais", "latitude": "-27.983334", "iata_code": "AIW", "timezone": "Africa/Windhoek", "gmt": "2", "geoname_id": null, "country_iso2": "NA"}, {"longitude": "-74.45722", "city_name": "Atlantic City", "latitude": "39.36", "iata_code": "AIY", "timezone": "America/New_York", "gmt": "-5", "geoname_id": "4500546", "country_iso2": "US"}, {"longitude": "-92.54722", "city_name": "Kaiser", "latitude": "38.09833", "iata_code": "AIZ", "timezone": "America/Chicago", "gmt": "-6", "geoname_id": "4402040", "country_iso2": "US"}, {"longitude": "8.794013", "city_name": "Ajaccio", "latitude": "41.91987", "iata_code": "AJA", "timezone": "Europe/Paris", "gmt": "1", "geoname_id": "3038334", "country_iso2": "FR"}, {"longitude": "40.101486", "city_name": "Sakaka Al Jouf", "latitude": "29.788668", "iata_code": "AJF", "timezone": "Asia/Riyadh", "gmt": "3", "geoname_id": null, "country_iso2": "SA"}, {"longitude": "43.025", "city_name": "Agri", "latitude": "39.65", "iata_code": "AJI", "timezone": "Europe/Istanbul", "gmt": "3", "geoname_id": "309647", "country_iso2": "TR"}, {"longitude": "-14.374444", "city_name": "Akjoujt", "latitude": "19.730556", "iata_code": "AJJ", "timezone": "Africa/Nouakchott", "gmt": null, "geoname_id": null, "country_iso2": "MR"}, {"longitude": "49.833332", "city_name": "Araak", "latitude": "34.13333", "iata_code": "AJK", "timezone": "Asia/Tehran", "gmt": "3.30", "geoname_id": "7431358", "country_iso2": "IR"}, {"longitude": "92.62482", "city_name": "Aizawl", "latitude": "23.838985", "iata_code": "AJL", "timezone": "Asia/Kolkata", "gmt": "5.30", "geoname_id": null, "country_iso2": "IN"}, {"longitude": "44.42972", "city_name": "Anjouan", "latitude": "-12.126389", "iata_code": "AJN", "timezone": "Indian/Comoro", "gmt": "3", "geoname_id": null, "country_iso2": "KM"}, {"longitude": "19.285557", "city_name": "Arvidsjaur", "latitude": "65.59139", "iata_code": "AJR", "timezone": "Europe/Stockholm", "gmt": "1", "geoname_id": "2725136", "country_iso2": "SE"}, {"longitude": "-113.666664", "city_name": "Abreojos", "latitude": "26.833332", "iata_code": "AJS", "timezone": "America/Mazatlan", "gmt": "-7", "geoname_id": null, "country_iso2": "MX"}, {"longitude": "-37.072792", "city_name": "Aracaju", "latitude": "-10.987206", "iata_code": "AJU", "timezone": "America/Maceio", "gmt": "-3", "geoname_id": "3471872", "country_iso2": "BR"}, {"longitude": "7.993056", "city_name": "Agades", "latitude": "16.964167", "iata_code": "AJY", "timezone": "Africa/Niamey", "gmt": "1", "geoname_id": null, "country_iso2": "NE"}, {"longitude": "108.936", "city_name": "Ankang", "latitude": "32.7091", "iata_code": "AKA", "timezone": "Asia/Shanghai", "gmt": "8", "geoname_id": "1789065", "country_iso2": "CN"}, {"longitude": "-174.20084", "city_name": "Atka", "latitude": "52.21722", "iata_code": "AKB", "timezone": "America/Adak", "gmt": "-10", "geoname_id": "5879729", "country_iso2": "US"}, {"longitude": "77.083336", "city_name": "Akola", "latitude": "20.666668", "iata_code": "AKD", "timezone": "Asia/Kolkata", "gmt": "5.30", "geoname_id": null, "country_iso2": "IN"}, {"longitude": "13.916667", "city_name": "Akieni", "latitude": "-1.172222", "iata_code": "AKE", "timezone": "Africa/Libreville", "gmt": "1", "geoname_id": null, "country_iso2": "GA"}, {"longitude": "23.333332", "city_name": "Kufrah", "latitude": "24.2", "iata_code": "AKF", "timezone": "Africa/Tripoli", "gmt": "2", "geoname_id": null, "country_iso2": "LY"}, {"longitude": "142.01666", "city_name": "Anguganak", "latitude": "-3.633333", "iata_code": "AKG", "timezone": "Pacific/Port_Moresby", "gmt": "10", "geoname_id": null, "country_iso2": "PG"}, {"longitude": "47.580555", "city_name": "Al Kharj", "latitude": "24.063334", "iata_code": "AKH", "timezone": "Asia/Riyadh", "gmt": "3", "geoname_id": null, "country_iso2": "SA"}, {"longitude": "-161.22333", "city_name": "Akiak", "latitude": "60.905556", "iata_code": "AKI", "timezone": "America/Anchorage", "gmt": "-9", "geoname_id": "5878993", "country_iso2": "US"}], [{"longitude": "142.45454", "city_name": "Asahikawa", "latitude": "43.67109", "iata_code": "AKJ", "timezone": "Asia/Tokyo", "gmt": "9", "geoname_id": "2130629", "country_iso2": "JP"}, {"longitude": "-154.16667", "city_name": "Akhiok", "latitude": "56.944443", "iata_code": "AKK", "timezone": "America/Anchorage", "gmt": "-9", "geoname_id": "5878982", "country_iso2": "US"}, {"longitude": "174.763331", "city_name": "Auckland", "latitude": "-36.84846", "iata_code": "AKL", "timezone": "Pacific/Auckland", "gmt": "12", "geoname_id": "2193733", "country_iso2": "NZ"}, {"longitude": "19.816668", "city_name": "Zakouma", "latitude": "10.883333", "iata_code": "AKM", "timezone": "Africa/Ndjamena", "gmt": "1", "geoname_id": "2424121", "country_iso2": "TD"}, {"longitude": "-156.66902", "city_name": "King Salmon", "latitude": "58.68274", "iata_code": "AKN", "timezone": "America/Anchorage", "gmt": "-9", "geoname_id": "5866330", "country_iso2": "US"}, {"longitude": "-103.21667", "city_name": "Akron", "latitude": "40.166668", "iata_code": "AKO", "timezone": "America/Denver", "gmt": "-7", "geoname_id": null, "country_iso2": "US"}, {"longitude": "-151.74", "city_name": "Anaktuvuk", "latitude": "68.1375", "iata_code": "AKP", "timezone": "America/Anchorage", "gmt": "-9", "geoname_id": null, "country_iso2": "US"}, {"longitude": "105.23333", "city_name": "Astraksetra", "latitude": "-4.616667", "iata_code": "AKQ", "timezone": "Asia/Jakarta", "gmt": "7", "geoname_id": "1624917", "country_iso2": "ID"}, {"longitude": "5.083333", "city_name": "Akure", "latitude": "7.25", "iata_code": "AKR", "timezone": "Africa/Lagos", "gmt": "1", "geoname_id": "2350841", "country_iso2": "NG"}, {"longitude": "160.68083", "city_name": "Auki", "latitude": "-8.697778", "iata_code": "AKS", "timezone": "Pacific/Guadalcanal", "gmt": "11", "geoname_id": "2109701", "country_iso2": "SB"}, {"longitude": "32.983334", "city_name": "Akrotiri", "latitude": "34.583332", "iata_code": "AKT", "timezone": "Asia/Nicosia", "gmt": "2", "geoname_id": null, "country_iso2": "CY"}, {"longitude": "80.29262", "city_name": "Aksu", "latitude": "41.259983", "iata_code": "AKU", "timezone": "Asia/Shanghai", "gmt": "8", "geoname_id": "1529660", "country_iso2": "CN"}, {"longitude": "-78.583336", "city_name": "Akulivik", "latitude": "60.733334", "iata_code": "AKV", "timezone": "America/Montreal", "gmt": "-5", "geoname_id": "5882994", "country_iso2": "CA"}, {"longitude": "49.683334", "city_name": "Aghajari", "latitude": "30.75", "iata_code": "AKW", "timezone": "Asia/Tehran", "gmt": "3.30", "geoname_id": null, "country_iso2": "IR"}, {"longitude": "57.211403", "city_name": "Aktyubinsk", "latitude": "50.249336", "iata_code": "AKX", "timezone": "Asia/Aqtobe", "gmt": "5", "geoname_id": "610611", "country_iso2": "KZ"}, {"longitude": "92.88028", "city_name": "Sittwe", "latitude": "20.130278", "iata_code": "AKY", "timezone": "Asia/Rangoon", "gmt": "6.30", "geoname_id": "1295765", "country_iso2": "MM"}, {"longitude": "76.912628", "city_name": "Almaty", "latitude": "43.255058", "iata_code": "ALA", "timezone": "Asia/Almaty", "gmt": "6", "geoname_id": "1526384", "country_iso2": "KZ"}, {"longitude": "-73.756232", "city_name": "Albany", "latitude": "42.652579", "iata_code": "ALB", "timezone": "America/New_York", "gmt": "-5", "geoname_id": "5106834", "country_iso2": "US"}, {"longitude": "-0.480994", "city_name": "Alicante", "latitude": "38.34521", "iata_code": "ALC", "timezone": "Europe/Madrid", "gmt": "1", "geoname_id": "2521978", "country_iso2": "ES"}, {"longitude": "-69.333336", "city_name": "Alerta", "latitude": "-11.683333", "iata_code": "ALD", "timezone": "America/Lima", "gmt": "-5", "geoname_id": null, "country_iso2": "PE"}, {"longitude": "-103.75", "city_name": "Alpine", "latitude": "30.416668", "iata_code": "ALE", "timezone": "America/Chicago", "gmt": "-6", "geoname_id": "5516203", "country_iso2": "US"}, {"longitude": "23.355808", "city_name": "Alta", "latitude": "69.977165", "iata_code": "ALF", "timezone": "Europe/Oslo", "gmt": "1", "geoname_id": "847633", "country_iso2": "NO"}, {"longitude": "3.21167", "city_name": "Algiers", "latitude": "36.70058", "iata_code": "ALG", "timezone": "Africa/Algiers", "gmt": "1", "geoname_id": "2507480", "country_iso2": "DZ"}, {"longitude": "117.804", "city_name": "Albany", "latitude": "-34.944996", "iata_code": "ALH", "timezone": "Australia/Perth", "gmt": "8", "geoname_id": "2077963", "country_iso2": "AU"}, {"longitude": "-98.066666", "city_name": "Alice", "latitude": "27.75", "iata_code": "ALI", "timezone": "America/Chicago", "gmt": "-6", "geoname_id": "4670234", "country_iso2": "US"}, {"longitude": "16.536388", "city_name": "Alexander Bay", "latitude": "-28.567223", "iata_code": "ALJ", "timezone": "Africa/Johannesburg", "gmt": "2", "geoname_id": null, "country_iso2": "ZA"}, {"longitude": "39.11667", "city_name": "Asela", "latitude": "7.966667", "iata_code": "ALK", "timezone": "Africa/Addis_Ababa", "gmt": "3", "geoname_id": null, "country_iso2": "ET"}, {"longitude": "8.216667", "city_name": "Albenga", "latitude": "44.05", "iata_code": "ALL", "timezone": "Europe/Rome", "gmt": "1", "geoname_id": "3183343", "country_iso2": "IT"}, {"longitude": "-105.960265", "city_name": "Alamogordo", "latitude": "32.899532", "iata_code": "ALM", "timezone": "America/Denver", "gmt": "-7", "geoname_id": "5454627", "country_iso2": "US"}, {"longitude": "-90.04833", "city_name": "Alton", "latitude": "38.891666", "iata_code": "ALN", "timezone": "America/Chicago", "gmt": "-6", "geoname_id": "4407066", "country_iso2": "US"}, {"longitude": "-92.39972", "city_name": "Waterloo", "latitude": "42.55611", "iata_code": "ALO", "timezone": "America/Chicago", "gmt": "-6", "geoname_id": "4880889", "country_iso2": "US"}, {"longitude": "37.227074", "city_name": "Aleppo", "latitude": "36.185352", "iata_code": "ALP", "timezone": "Asia/Damascus", "gmt": "2", "geoname_id": "170063", "country_iso2": "SY"}, {"longitude": "-55.763332", "city_name": "Alegrete", "latitude": "-29.799723", "iata_code": "ALQ", "timezone": "America/Sao_Paulo", "gmt": "-3", "geoname_id": null, "country_iso2": "BR"}, {"longitude": "169.36945", "city_name": "Alexandra", "latitude": "-45.21389", "iata_code": "ALR", "timezone": "Pacific/Auckland", "gmt": "12", "geoname_id": "2184707", "country_iso2": "NZ"}, {"longitude": "-105.86667", "city_name": "Alamosa", "latitude": "37.43667", "iata_code": "ALS", "timezone": "America/Denver", "gmt": "-7", "geoname_id": "5411479", "country_iso2": "US"}, {"longitude": "-54.766666", "city_name": "Alenquer", "latitude": "-1.933333", "iata_code": "ALT", "timezone": "America/Santarem", "gmt": "-3", "geoname_id": "3407980", "country_iso2": "BR"}, {"longitude": "50.8", "city_name": "Alula", "latitude": "11.966667", "iata_code": "ALU", "timezone": "Africa/Mogadishu", "gmt": "3", "geoname_id": null, "country_iso2": "SO"}, {"longitude": "-118.291115", "city_name": "Walla Walla", "latitude": "46.094723", "iata_code": "ALW", "timezone": "America/Los_Angeles", "gmt": "-8", "geoname_id": "5814916", "country_iso2": "US"}, {"longitude": "-85.95", "city_name": "Alexander City", "latitude": "32.933334", "iata_code": "ALX", "timezone": "America/Chicago", "gmt": "-6", "geoname_id": "4829843", "country_iso2": "US"}, {"longitude": "29.9443", "city_name": "Alexandria", "latitude": "31.2135", "iata_code": "ALY", "timezone": "Africa/Cairo", "gmt": "2", "geoname_id": "361058", "country_iso2": "EG"}, {"longitude": "-154.24583", "city_name": "Alitak", "latitude": "56.895832", "iata_code": "ALZ", "timezone": "America/Anchorage", "gmt": "-9", "geoname_id": null, "country_iso2": "US"}, {"longitude": "-101.831297", "city_name": "Amarillo", "latitude": "35.221997", "iata_code": "AMA", "timezone": "America/Chicago", "gmt": "-6", "geoname_id": "5516233", "country_iso2": "US"}, {"longitude": "48.983334", "city_name": "Ambilobe", "latitude": "-13.183333", "iata_code": "AMB", "timezone": "Indian/Antananarivo", "gmt": "3", "geoname_id": null, "country_iso2": "MG"}, {"longitude": "20.283333", "city_name": "Am Timan", "latitude": "11.033333", "iata_code": "AMC", "timezone": "Africa/Ndjamena", "gmt": "1", "geoname_id": null, "country_iso2": "TD"}, {"longitude": "72.62417", "city_name": "Ahmedabad", "latitude": "23.06639", "iata_code": "AMD", "timezone": "Asia/Kolkata", "gmt": "5.30", "geoname_id": "1279233", "country_iso2": "IN"}, {"longitude": "37.583332", "city_name": "Alto Molocue", "latitude": "-15.833333", "iata_code": "AME", "timezone": "Africa/Maputo", "gmt": "2", "geoname_id": null, "country_iso2": "MZ"}, {"longitude": "141.66667", "city_name": "Ama", "latitude": "-4.166667", "iata_code": "AMF", "timezone": "Pacific/Port_Moresby", "gmt": "10", "geoname_id": "2100991", "country_iso2": "PG"}, {"longitude": "143.7", "city_name": "Amboin", "latitude": "-4.616667", "iata_code": "AMG", "timezone": "Pacific/Port_Moresby", "gmt": "10", "geoname_id": null, "country_iso2": "PG"}, {"longitude": "37.576942", "city_name": "Arba Mintch", "latitude": "6.036111", "iata_code": "AMH", "timezone": "Africa/Addis_Ababa", "gmt": "3", "geoname_id": null, "country_iso2": "ET"}, {"longitude": "116.10237", "city_name": "Mataram", "latitude": "-8.563165", "iata_code": "AMI", "timezone": "Asia/Makassar", "gmt": "8", "geoname_id": null, "country_iso2": "ID"}, {"longitude": "-40.683334", "city_name": "Almenara", "latitude": "-16.183332", "iata_code": "AMJ", "timezone": "America/Sao_Paulo", "gmt": "-3", "geoname_id": null, "country_iso2": "BR"}, {"longitude": "-82.86667", "city_name": "Puerto Armuellas", "latitude": "8.266667", "iata_code": "AML", "timezone": "America/Panama", "gmt": "-5", "geoname_id": "3711668", "country_iso2": "PA"}, {"longitude": "35.98932", "city_name": "Amman", "latitude": "31.722534", "iata_code": "AMM", "timezone": "Asia/Amman", "gmt": "2", "geoname_id": "250441", "country_iso2": "JO"}, {"longitude": "-84.65", "city_name": "Alma", "latitude": "43.38333", "iata_code": "AMN", "timezone": "America/Detroit", "gmt": "-5", "geoname_id": "4998830", "country_iso2": "US"}, {"longitude": "15.316667", "city_name": "Mao", "latitude": "14.116667", "iata_code": "AMO", "timezone": "Africa/Ndjamena", "gmt": "1", "geoname_id": "2428394", "country_iso2": "TD"}, {"longitude": "44.733334", "city_name": "Ampanihy", "latitude": "-24.7", "iata_code": "AMP", "timezone": "Indian/Antananarivo", "gmt": "3", "geoname_id": null, "country_iso2": "MG"}, {"longitude": "128.08888", "city_name": "Ambon", "latitude": "-3.704996", "iata_code": "AMQ", "timezone": "Asia/Jayapura", "gmt": "9", "geoname_id": "1651531", "country_iso2": "ID"}, {"longitude": "171.23334", "city_name": "Arno", "latitude": "7.033333", "iata_code": "AMR", "timezone": "Pacific/Majuro", "gmt": "12", "geoname_id": null, "country_iso2": "MH"}, {"longitude": "4.892222", "city_name": "Amsterdam", "latitude": "52.373056", "iata_code": "AMS", "timezone": "Europe/Amsterdam", "gmt": "1", "geoname_id": "2759794", "country_iso2": "NL"}, {"longitude": "132.03334", "city_name": "Amata", "latitude": "-26.766666", "iata_code": "AMT", "timezone": "Australia/Adelaide", "gmt": "9.30", "geoname_id": null, "country_iso2": "AU"}, {"longitude": "141.15", "city_name": "Amanab", "latitude": "-3.516667", "iata_code": "AMU", "timezone": "Pacific/Port_Moresby", "gmt": "10", "geoname_id": "2100976", "country_iso2": "PG"}, {"longitude": "61.55", "city_name": "Amderma", "latitude": "69.76667", "iata_code": "AMV", "timezone": "Europe/Moscow", "gmt": "3", "geoname_id": null, "country_iso2": "RU"}, {"longitude": "-93.61833", "city_name": "Ames", "latitude": "41.994167", "iata_code": "AMW", "timezone": "America/Chicago", "gmt": "-6", "geoname_id": "4846834", "country_iso2": "US"}, {"longitude": "135.24", "city_name": "Ammaroo", "latitude": "-21.74", "iata_code": "AMX", "timezone": "Australia/Darwin", "gmt": "9.30", "geoname_id": null, "country_iso2": "AU"}, {"longitude": "45.666668", "city_name": "Ambatomainty", "latitude": "-17.683332", "iata_code": "AMY", "timezone": "Indian/Antananarivo", "gmt": "3", "geoname_id": null, "country_iso2": "MG"}, {"longitude": "174.96666", "city_name": "Ardmore", "latitude": "-37.033333", "iata_code": "AMZ", "timezone": "Pacific/Auckland", "gmt": "12", "geoname_id": "2193733", "country_iso2": "NZ"}, {"longitude": "-117.933334", "city_name": "Anaheim", "latitude": "33.816666", "iata_code": "ANA", "timezone": "America/Los_Angeles", "gmt": "-8", "geoname_id": "5323810", "country_iso2": "US"}, {"longitude": "-85.831632", "city_name": "Anniston", "latitude": "33.659826", "iata_code": "ANB", "timezone": "America/Chicago", "gmt": "-6", "geoname_id": "4081914", "country_iso2": "US"}, {"longitude": "-149.900278", "city_name": "Anchorage", "latitude": "61.218056", "iata_code": "ANC", "timezone": "America/Anchorage", "gmt": "-9", "geoname_id": "5879400", "country_iso2": "US"}, {"longitude": "-82.71", "city_name": "Anderson", "latitude": "34.49361", "iata_code": "AND", "timezone": "America/New_York", "gmt": "-5", "geoname_id": "4569298", "country_iso2": "US"}, {"longitude": "-0.563166", "city_name": "Angers", "latitude": "47.478419", "iata_code": "ANE", "timezone": "Europe/Paris", "gmt": "1", "geoname_id": "3037656", "country_iso2": "FR"}, {"longitude": "-70.44079", "city_name": "Antofagasta", "latitude": "-23.449", "iata_code": "ANF", "timezone": "America/Santiago", "gmt": "-4", "geoname_id": "3899539", "country_iso2": "CL"}, {"longitude": "0.216667", "city_name": "Angouleme", "latitude": "45.733334", "iata_code": "ANG", "timezone": "Europe/Paris", "gmt": "1", "geoname_id": "3027064", "country_iso2": "FR"}, {"longitude": "160.5", "city_name": "Anuha Island Resort", "latitude": "-8.983333", "iata_code": "ANH", "timezone": "Pacific/Guadalcanal", "gmt": "11", "geoname_id": null, "country_iso2": "SB"}, {"longitude": "-159.53697", "city_name": "Aniak", "latitude": "61.574398", "iata_code": "ANI", "timezone": "America/Anchorage", "gmt": "-9", "geoname_id": "5879487", "country_iso2": "US"}, {"longitude": "13.833333", "city_name": "Zanaga", "latitude": "-2.85", "iata_code": "ANJ", "timezone": "Africa/Brazzaville", "gmt": "1", "geoname_id": "2254814", "country_iso2": "CG"}, {"longitude": "39.866667", "city_name": "Ankara", "latitude": "39.866667", "iata_code": "ANK", "timezone": "Europe/Istanbul", "gmt": "3", "geoname_id": "323786", "country_iso2": "TR"}, {"longitude": "17.25", "city_name": "Andulo", "latitude": "-11.25", "iata_code": "ANL", "timezone": "Africa/Luanda", "gmt": "1", "geoname_id": null, "country_iso2": "AO"}, {"longitude": "50.316666", "city_name": "Antalaha", "latitude": "-15", "iata_code": "ANM", "timezone": "Indian/Antananarivo", "gmt": "3", "geoname_id": "1071296", "country_iso2": "MG"}, {"longitude": "-131.57056", "city_name": "Annette Island", "latitude": "55.036945", "iata_code": "ANN", "timezone": "America/Sitka", "gmt": "-9", "geoname_id": "5554428", "country_iso2": "US"}, {"longitude": "39.936943", "city_name": "Angoche", "latitude": "-16.177778", "iata_code": "ANO", "timezone": "Africa/Maputo", "gmt": "2", "geoname_id": null, "country_iso2": "MZ"}, {"longitude": "-76.5", "city_name": "Annapolis", "latitude": "38.983334", "iata_code": "ANP", "timezone": "America/New_York", "gmt": "-5", "geoname_id": "4140963", "country_iso2": "US"}, {"longitude": "-85", "city_name": "Angola", "latitude": "41.63333", "iata_code": "ANQ", "timezone": "America/Indiana/Indianapolis", "gmt": "-5", "geoname_id": "4917614", "country_iso2": "US"}, {"longitude": "4.39625", "city_name": "Antwerp", "latitude": "51.21992", "iata_code": "ANR", "timezone": "Europe/Brussels", "gmt": "1", "geoname_id": "2803138", "country_iso2": "BE"}, {"longitude": "-73.355835", "city_name": "Andahuaylas", "latitude": "-13.716667", "iata_code": "ANS", "timezone": "America/Lima", "gmt": "-5", "geoname_id": "3947740", "country_iso2": "PE"}, {"longitude": "10.283333", "city_name": "St Anton", "latitude": "47.15", "iata_code": "ANT", "timezone": "Europe/Vienna", "gmt": "1", "geoname_id": null, "country_iso2": "AT"}, {"longitude": "-61.76389", "city_name": "St. John's", "latitude": "17.108334", "iata_code": "ANU", "timezone": "America/Antigua", "gmt": "-4", "geoname_id": "3576022", "country_iso2": "AG"}, {"longitude": "-160.18889", "city_name": "Anvik", "latitude": "62.647778", "iata_code": "ANV", "timezone": "America/Anchorage", "gmt": "-9", "geoname_id": "5879553", "country_iso2": "US"}, {"longitude": "-99.86667", "city_name": "Ainsworth", "latitude": "42.55", "iata_code": "ANW", "timezone": "America/Chicago", "gmt": "-6", "geoname_id": null, "country_iso2": "US"}, {"longitude": "16.133326", "city_name": "Andenes", "latitude": "69.30492", "iata_code": "ANX", "timezone": "Europe/Oslo", "gmt": "1", "geoname_id": "3163146", "country_iso2": "NO"}, {"longitude": "-98.03333", "city_name": "Anthony", "latitude": "37.15", "iata_code": "ANY", "timezone": "America/Chicago", "gmt": "-6", "geoname_id": "4281730", "country_iso2": "US"}, {"longitude": "132.16667", "city_name": "Angus Downs", "latitude": "-25.083332", "iata_code": "ANZ", "timezone": "Australia/Darwin", "gmt": "9.30", "geoname_id": null, "country_iso2": "AU"}, {"longitude": "146.8", "city_name": "Aroa", "latitude": "-9.05", "iata_code": "AOA", "timezone": "Pacific/Port_Moresby", "gmt": "10", "geoname_id": "2100552", "country_iso2": "PG"}, {"longitude": "144.65", "city_name": "Annanberg", "latitude": "-4.916667", "iata_code": "AOB", "timezone": "Pacific/Port_Moresby", "gmt": "10", "geoname_id": "2100742", "country_iso2": "PG"}, {"longitude": "12.45", "city_name": "Altenburg", "latitude": "50.983334", "iata_code": "AOC", "timezone": "Europe/Berlin", "gmt": "1", "geoname_id": "2957773", "country_iso2": "DE"}, {"longitude": "19.288889", "city_name": "Abou Deia", "latitude": "11.474722", "iata_code": "AOD", "timezone": "Africa/Ndjamena", "gmt": "1", "geoname_id": null, "country_iso2": "TD"}, {"longitude": "123.03333", "city_name": "Anshan", "latitude": "41.166668", "iata_code": "AOG", "timezone": "Asia/Shanghai", "gmt": "8", "geoname_id": "2038632", "country_iso2": "CN"}, {"longitude": "-84.1", "city_name": "Lima", "latitude": "40.766666", "iata_code": "AOH", "timezone": "America/New_York", "gmt": "-5", "geoname_id": "5160783", "country_iso2": "US"}, {"longitude": "13.355723", "city_name": "Ancona", "latitude": "43.60691", "iata_code": "AOI", "timezone": "Europe/Rome", "gmt": "1", "geoname_id": "3183089", "country_iso2": "IT"}, {"longitude": "140.68922", "city_name": "Aomori", "latitude": "40.738758", "iata_code": "AOJ", "timezone": "Asia/Tokyo", "gmt": "9", "geoname_id": "2130658", "country_iso2": "JP"}], [{"longitude": "27.146729", "city_name": "Karpathos", "latitude": "35.420685", "iata_code": "AOK", "timezone": "Europe/Athens", "gmt": "2", "geoname_id": "264641", "country_iso2": "GR"}, {"longitude": "-57.15", "city_name": "Paso De Los Libres", "latitude": "-29.683332", "iata_code": "AOL", "timezone": "America/Argentina/Cordoba", "gmt": "-3", "geoname_id": "3427279", "country_iso2": "AR"}, {"longitude": "140.68922", "city_name": "Adam", "latitude": "40.738758", "iata_code": "AOM", "timezone": "Asia/Muscat", "gmt": "4", "geoname_id": "289384", "country_iso2": "OM"}, {"longitude": "146", "city_name": "Arona", "latitude": "-6.333333", "iata_code": "AON", "timezone": "Pacific/Port_Moresby", "gmt": "10", "geoname_id": "2100541", "country_iso2": "PG"}, {"longitude": "-78.32", "city_name": "Martinsburg", "latitude": "40.297222", "iata_code": "AOO", "timezone": "America/New_York", "gmt": "-5", "geoname_id": "5200055", "country_iso2": "US"}, {"longitude": "-76.40236", "city_name": "Andoas", "latitude": "-2.90464", "iata_code": "AOP", "timezone": "America/Lima", "gmt": "-5", "geoname_id": "3699659", "country_iso2": "PE"}, {"longitude": "100.405266", "city_name": "Alor Setar", "latitude": "6.201171", "iata_code": "AOR", "timezone": "Asia/Kuala_Lumpur", "gmt": "8", "geoname_id": "1736309", "country_iso2": "MY"}, {"longitude": "-153.83333", "city_name": "Amook", "latitude": "57.466667", "iata_code": "AOS", "timezone": "America/Anchorage", "gmt": "-9", "geoname_id": null, "country_iso2": "US"}, {"longitude": "7.3625", "city_name": "Aosta", "latitude": "45.73861", "iata_code": "AOT", "timezone": "Europe/Rome", "gmt": "1", "geoname_id": "3182997", "country_iso2": "IT"}, {"longitude": "106.833336", "city_name": "Attopeu", "latitude": "14.8", "iata_code": "AOU", "timezone": "Asia/Vientiane", "gmt": "7", "geoname_id": "1665046", "country_iso2": "LA"}, {"longitude": "-68.51667", "city_name": "Apolo", "latitude": "-14.716667", "iata_code": "APB", "timezone": "America/La_Paz", "gmt": "-4", "geoname_id": null, "country_iso2": "BO"}, {"longitude": "-122.28", "city_name": "Napa", "latitude": "38.212223", "iata_code": "APC", "timezone": "America/Los_Angeles", "gmt": "-8", "geoname_id": "5376095", "country_iso2": "US"}, {"longitude": "-69.083336", "city_name": "San Juan Aposento", "latitude": "-11.933333", "iata_code": "APE", "timezone": "America/Lima", "gmt": "-5", "geoname_id": null, "country_iso2": "PE"}, {"longitude": "-81.775276", "city_name": "Naples", "latitude": "26.152779", "iata_code": "APF", "timezone": "America/New_York", "gmt": "-5", "geoname_id": "4165565", "country_iso2": "US"}, {"longitude": "-76.166664", "city_name": "Aberdeen", "latitude": "39.5", "iata_code": "APG", "timezone": "America/New_York", "gmt": "-5", "geoname_id": null, "country_iso2": "US"}, {"longitude": "-77.35", "city_name": "Bowling Green", "latitude": "38.05", "iata_code": "APH", "timezone": "America/New_York", "gmt": "-5", "geoname_id": null, "country_iso2": "US"}, {"longitude": "-73.05194", "city_name": "Apiay", "latitude": "4.068889", "iata_code": "API", "timezone": "America/Bogota", "gmt": "-5", "geoname_id": "3689790", "country_iso2": "CO"}, {"longitude": "-146.08333", "city_name": "Apataki", "latitude": "-15.416667", "iata_code": "APK", "timezone": "Pacific/Tahiti", "gmt": "-10", "geoname_id": null, "country_iso2": "PF"}, {"longitude": "39.287224", "city_name": "Nampula", "latitude": "-15.101667", "iata_code": "APL", "timezone": "Africa/Maputo", "gmt": "2", "geoname_id": "1033356", "country_iso2": "MZ"}, {"longitude": "-83.55583", "city_name": "Alpena", "latitude": "45.08167", "iata_code": "APN", "timezone": "America/Detroit", "gmt": "-5", "geoname_id": "4984075", "country_iso2": "US"}, {"longitude": "-76.71766", "city_name": "Apartado", "latitude": "7.817678", "iata_code": "APO", "timezone": "America/Bogota", "gmt": "-5", "geoname_id": null, "country_iso2": "CO"}, {"longitude": "148.13333", "city_name": "Asapa", "latitude": "-8.983333", "iata_code": "APP", "timezone": "Pacific/Port_Moresby", "gmt": "10", "geoname_id": null, "country_iso2": "PG"}, {"longitude": "-36.65", "city_name": "Arapiraca", "latitude": "-9.75", "iata_code": "APQ", "timezone": "America/Maceio", "gmt": "-3", "geoname_id": "3395981", "country_iso2": "BR"}, {"longitude": "145", "city_name": "April River", "latitude": "-8.5", "iata_code": "APR", "timezone": "Pacific/Port_Moresby", "gmt": "10", "geoname_id": null, "country_iso2": "PG"}, {"longitude": "-48.966667", "city_name": "Anapolis", "latitude": "-16.333332", "iata_code": "APS", "timezone": "America/Sao_Paulo", "gmt": "-3", "geoname_id": "3462377", "country_iso2": "BR"}, {"longitude": "-85.5", "city_name": "Jasper", "latitude": "35.066666", "iata_code": "APT", "timezone": "America/Chicago", "gmt": "-6", "geoname_id": null, "country_iso2": "US"}, {"longitude": "-51.483334", "city_name": "Apucarana", "latitude": "-23.55", "iata_code": "APU", "timezone": "America/Sao_Paulo", "gmt": "-3", "geoname_id": "3457671", "country_iso2": "BR"}, {"longitude": "-117.212776", "city_name": "Apple Valley", "latitude": "34.52639", "iata_code": "APV", "timezone": "America/Los_Angeles", "gmt": "-8", "geoname_id": "5324363", "country_iso2": "US"}, {"longitude": "-171.766667", "city_name": "Apia", "latitude": "-13.833333", "iata_code": "APW", "timezone": "Pacific/Apia", "gmt": "13", "geoname_id": "4035413", "country_iso2": "WS"}, {"longitude": "-51.466667", "city_name": "Arapongas", "latitude": "-23.483334", "iata_code": "APX", "timezone": "America/Sao_Paulo", "gmt": "-3", "geoname_id": "3457671", "country_iso2": "BR"}, {"longitude": "-45.933334", "city_name": "Alto Parnaiba", "latitude": "-9.133333", "iata_code": "APY", "timezone": "America/Fortaleza", "gmt": "-3", "geoname_id": null, "country_iso2": "BR"}, {"longitude": "-70.083336", "city_name": "Zapala", "latitude": "-38.916668", "iata_code": "APZ", "timezone": "America/Argentina/Salta", "gmt": "-3", "geoname_id": "8556185", "country_iso2": "AR"}, {"longitude": "-48.13333", "city_name": "Araraquara", "latitude": "-21.816668", "iata_code": "AQA", "timezone": "America/Sao_Paulo", "gmt": "-3", "geoname_id": "3471766", "country_iso2": "BR"}, {"longitude": "-91.15", "city_name": "Quiche", "latitude": "15.01", "iata_code": "AQB", "timezone": "America/Guatemala", "gmt": "-6", "geoname_id": "3599699", "country_iso2": "GT"}, {"longitude": "117.0509", "city_name": "Anqing", "latitude": "30.5825", "iata_code": "AQG", "timezone": "Asia/Shanghai", "gmt": "8", "geoname_id": "1817993", "country_iso2": "CN"}, {"longitude": "46.121315", "city_name": "Qaisumah", "latitude": "28.334408", "iata_code": "AQI", "timezone": "Asia/Riyadh", "gmt": "3", "geoname_id": null, "country_iso2": "SA"}, {"longitude": "35.02151", "city_name": "Aqaba", "latitude": "29.610073", "iata_code": "AQJ", "timezone": "Asia/Amman", "gmt": "2", "geoname_id": "250774", "country_iso2": "JO"}, {"longitude": "-63.066666", "city_name": "Ariquemes", "latitude": "-9.933333", "iata_code": "AQM", "timezone": "America/Porto_Velho", "gmt": "-4", "geoname_id": null, "country_iso2": "BR"}, {"longitude": "-71.56799", "city_name": "Arequipa", "latitude": "-16.344812", "iata_code": "AQP", "timezone": "America/Lima", "gmt": "-5", "geoname_id": "3947322", "country_iso2": "PE"}, {"longitude": "170.9", "city_name": "Saqani", "latitude": "-17", "iata_code": "AQS", "timezone": "Pacific/Fiji", "gmt": "12", "geoname_id": null, "country_iso2": "FJ"}, {"longitude": "-149.11667", "city_name": "Alyeska", "latitude": "60.966667", "iata_code": "AQY", "timezone": "America/Anchorage", "gmt": "-9", "geoname_id": "5879267", "country_iso2": "US"}, {"longitude": "-91.88389", "city_name": "New Iberia", "latitude": "30.037779", "iata_code": "ARA", "timezone": "America/Chicago", "gmt": "-6", "geoname_id": "4334971", "country_iso2": "US"}, {"longitude": "-83.75", "city_name": "Ann Arbor", "latitude": "42.3", "iata_code": "ARB", "timezone": "America/Detroit", "gmt": "-5", "geoname_id": "4984247", "country_iso2": "US"}, {"longitude": "-145.52444", "city_name": "Arctic Village", "latitude": "68.1375", "iata_code": "ARC", "timezone": "America/Anchorage", "gmt": "-9", "geoname_id": "5879636", "country_iso2": "US"}, {"longitude": "124.53333", "city_name": "Alor Island", "latitude": "-8.683333", "iata_code": "ARD", "timezone": "Asia/Makassar", "gmt": "8", "geoname_id": null, "country_iso2": "ID"}, {"longitude": "-66.675835", "city_name": "Arecibo", "latitude": "18.45", "iata_code": "ARE", "timezone": "America/Puerto_Rico", "gmt": "-4", "geoname_id": "4562635", "country_iso2": "PR"}, {"longitude": "-70.13333", "city_name": "Acaricuara", "latitude": "0.533333", "iata_code": "ARF", "timezone": "America/Bogota", "gmt": "-5", "geoname_id": null, "country_iso2": "CO"}, {"longitude": "-90.95", "city_name": "Walnut Ridge", "latitude": "36.066666", "iata_code": "ARG", "timezone": "America/Chicago", "gmt": "-6", "geoname_id": "4102412", "country_iso2": "US"}, {"longitude": "40.711903", "city_name": "Arkhangelsk", "latitude": "64.594795", "iata_code": "ARH", "timezone": "Europe/Moscow", "gmt": "3", "geoname_id": "581049", "country_iso2": "RU"}, {"longitude": "-70.335556", "city_name": "Arica", "latitude": "-18.349766", "iata_code": "ARI", "timezone": "America/Santiago", "gmt": "-4", "geoname_id": "3899361", "country_iso2": "CL"}, {"longitude": "140.78334", "city_name": "Arso", "latitude": "-2.933333", "iata_code": "ARJ", "timezone": "Asia/Jayapura", "gmt": "9", "geoname_id": "2082600", "country_iso2": "ID"}, {"longitude": "36.683334", "city_name": "Arusha", "latitude": "-3.366667", "iata_code": "ARK", "timezone": "Africa/Dar_es_Salaam", "gmt": "3", "geoname_id": "161325", "country_iso2": "TZ"}, {"longitude": "1.483333", "city_name": "Arly", "latitude": "11.6", "iata_code": "ARL", "timezone": "Africa/Ouagadougou", "gmt": null, "geoname_id": null, "country_iso2": "BF"}, {"longitude": "151.61493", "city_name": "Armidale", "latitude": "-30.532297", "iata_code": "ARM", "timezone": "Australia/Sydney", "gmt": "10", "geoname_id": "2177671", "country_iso2": "AU"}, {"longitude": "-76.433334", "city_name": "Arboletas", "latitude": "8.85", "iata_code": "ARO", "timezone": "America/Bogota", "gmt": "-5", "geoname_id": null, "country_iso2": "CO"}, {"longitude": "149.5", "city_name": "Aragip", "latitude": "-9.8", "iata_code": "ARP", "timezone": "Pacific/Port_Moresby", "gmt": "10", "geoname_id": "2085070", "country_iso2": "PG"}, {"longitude": "-71.43166", "city_name": "Arauquita", "latitude": "7.033056", "iata_code": "ARQ", "timezone": "America/Bogota", "gmt": "-5", "geoname_id": null, "country_iso2": "CO"}, {"longitude": "-70.833336", "city_name": "Alto Rio Senguerr", "latitude": "-45.033333", "iata_code": "ARR", "timezone": "America/Argentina/Catamarca", "gmt": "-3", "geoname_id": null, "country_iso2": "AR"}, {"longitude": "-52.233334", "city_name": "Aragarcas", "latitude": "-15.9", "iata_code": "ARS", "timezone": "America/Sao_Paulo", "gmt": "-3", "geoname_id": null, "country_iso2": "BR"}, {"longitude": "-76.021385", "city_name": "Watertown", "latitude": "43.990833", "iata_code": "ART", "timezone": "America/New_York", "gmt": "-5", "geoname_id": "5143396", "country_iso2": "US"}, {"longitude": "-50.42611", "city_name": "Aracatuba", "latitude": "-21.143612", "iata_code": "ARU", "timezone": "America/Sao_Paulo", "gmt": "-3", "geoname_id": "3471859", "country_iso2": "BR"}, {"longitude": "-89.73222", "city_name": "Minocqua", "latitude": "45.924168", "iata_code": "ARV", "timezone": "America/Chicago", "gmt": "-6", "geoname_id": "5263156", "country_iso2": "US"}, {"longitude": "21.266666", "city_name": "Arad", "latitude": "46.183334", "iata_code": "ARW", "timezone": "Europe/Bucharest", "gmt": "2", "geoname_id": "686254", "country_iso2": "RO"}, {"longitude": "-74.1", "city_name": "Neptune", "latitude": "40.216667", "iata_code": "ARX", "timezone": "America/New_York", "gmt": "-5", "geoname_id": null, "country_iso2": "US"}, {"longitude": "143", "city_name": "Ararat", "latitude": "-37.316666", "iata_code": "ARY", "timezone": "Australia/Melbourne", "gmt": "10", "geoname_id": "2177091", "country_iso2": "AU"}, {"longitude": "13.5", "city_name": "N'zeto", "latitude": "-7.5", "iata_code": "ARZ", "timezone": "Africa/Luanda", "gmt": "1", "geoname_id": null, "country_iso2": "AO"}, {"longitude": "42.638332", "city_name": "Assab", "latitude": "13.07", "iata_code": "ASA", "timezone": "Africa/Asmara", "gmt": "3", "geoname_id": null, "country_iso2": "ER"}, {"longitude": "58.366978", "city_name": "Ashgabat", "latitude": "37.984184", "iata_code": "ASB", "timezone": "Asia/Ashgabat", "gmt": "5", "geoname_id": "162183", "country_iso2": "TM"}, {"longitude": "-63.15", "city_name": "Ascension", "latitude": "-15.916667", "iata_code": "ASC", "timezone": "America/La_Paz", "gmt": "-4", "geoname_id": null, "country_iso2": "BO"}, {"longitude": "-77.79611", "city_name": "Andros Town", "latitude": "24.697779", "iata_code": "ASD", "timezone": "America/Nassau", "gmt": "-5", "geoname_id": "3572906", "country_iso2": "BS"}, {"longitude": "-106.864685", "city_name": "Aspen", "latitude": "39.219685", "iata_code": "ASE", "timezone": "America/Denver", "gmt": "-7", "geoname_id": "5412230", "country_iso2": "US"}, {"longitude": "47.999977", "city_name": "Astrakhan", "latitude": "46.2877", "iata_code": "ASF", "timezone": "Europe/Volgograd", "gmt": "3", "geoname_id": "580497", "country_iso2": "RU"}, {"longitude": "171.78334", "city_name": "Ashburton", "latitude": "-43.9", "iata_code": "ASG", "timezone": "Pacific/Auckland", "gmt": "12", "geoname_id": "6217081", "country_iso2": "NZ"}, {"longitude": "-71.509445", "city_name": "Nashua", "latitude": "42.77889", "iata_code": "ASH", "timezone": "America/New_York", "gmt": "-5", "geoname_id": "5090046", "country_iso2": "US"}, {"longitude": "-14.4", "city_name": "Georgetown", "latitude": "-7.966667", "iata_code": "ASI", "timezone": "Atlantic/St_Helena", "gmt": null, "geoname_id": "2411397", "country_iso2": "SH"}, {"longitude": "129.70793", "city_name": "Amami", "latitude": "28.431522", "iata_code": "ASJ", "timezone": "Asia/Tokyo", "gmt": "9", "geoname_id": null, "country_iso2": "JP"}, {"longitude": "-5.283333", "city_name": "Yamoussoukro", "latitude": "6.816667", "iata_code": "ASK", "timezone": "Africa/Abidjan", "gmt": null, "geoname_id": null, "country_iso2": "CI"}, {"longitude": "-94.38333", "city_name": "Marshall", "latitude": "32.55", "iata_code": "ASL", "timezone": "America/Chicago", "gmt": "-6", "geoname_id": "4709272", "country_iso2": "US"}, {"longitude": "38.91028", "city_name": "Asmara", "latitude": "15.291111", "iata_code": "ASM", "timezone": "Africa/Asmara", "gmt": "3", "geoname_id": "343300", "country_iso2": "ER"}, {"longitude": "-86.1", "city_name": "Talladega", "latitude": "33.433334", "iata_code": "ASN", "timezone": "America/Chicago", "gmt": "-6", "geoname_id": "4049979", "country_iso2": "US"}, {"longitude": "34.536667", "city_name": "Asosa", "latitude": "10.047222", "iata_code": "ASO", "timezone": "Africa/Addis_Ababa", "gmt": "3", "geoname_id": null, "country_iso2": "ET"}, {"longitude": "133.880611", "city_name": "Alice Springs", "latitude": "-23.70021", "iata_code": "ASP", "timezone": "Australia/Darwin", "gmt": "9.30", "geoname_id": "2077895", "country_iso2": "AU"}, {"longitude": "-117.166664", "city_name": "Austin", "latitude": "39.466667", "iata_code": "ASQ", "timezone": "America/Los_Angeles", "gmt": "-8", "geoname_id": null, "country_iso2": "US"}, {"longitude": "35.490707", "city_name": "Kayseri", "latitude": "38.7742", "iata_code": "ASR", "timezone": "Europe/Istanbul", "gmt": "3", "geoname_id": "308464", "country_iso2": "TR"}, {"longitude": "-123.88", "city_name": "Astoria", "latitude": "46.15972", "iata_code": "AST", "timezone": "America/Los_Angeles", "gmt": "-8", "geoname_id": "5711847", "country_iso2": "US"}, {"longitude": "-57.513794", "city_name": "Asuncion", "latitude": "-25.241795", "iata_code": "ASU", "timezone": "America/Asuncion", "gmt": "-4", "geoname_id": "3439389", "country_iso2": "PY"}, {"longitude": "37.25", "city_name": "Amboseli", "latitude": "-2.633333", "iata_code": "ASV", "timezone": "Africa/Nairobi", "gmt": "3", "geoname_id": "201050", "country_iso2": "KE"}, {"longitude": "32.824818", "city_name": "Aswan", "latitude": "23.968021", "iata_code": "ASW", "timezone": "Africa/Cairo", "gmt": "2", "geoname_id": "359792", "country_iso2": "EG"}, {"longitude": "-90.916664", "city_name": "Ashland", "latitude": "46.55", "iata_code": "ASX", "timezone": "America/Chicago", "gmt": "-6", "geoname_id": "5024719", "country_iso2": "US"}, {"longitude": "-99.36667", "city_name": "Ashley", "latitude": "46.033333", "iata_code": "ASY", "timezone": "America/Chicago", "gmt": "-6", "geoname_id": null, "country_iso2": "US"}, {"longitude": "150.36667", "city_name": "Asirim", "latitude": "-5.866667", "iata_code": "ASZ", "timezone": "Pacific/Port_Moresby", "gmt": "10", "geoname_id": "2093967", "country_iso2": "PG"}, {"longitude": "-77.6", "city_name": "Anta", "latitude": "-9.347222", "iata_code": "ATA", "timezone": "America/Lima", "gmt": "-5", "geoname_id": "3699617", "country_iso2": "PE"}, {"longitude": "34.016666", "city_name": "Atbara", "latitude": "17.716667", "iata_code": "ATB", "timezone": "Africa/Khartoum", "gmt": "3", "geoname_id": null, "country_iso2": "SD"}, {"longitude": "-75.67139", "city_name": "Arthur's Town", "latitude": "24.62861", "iata_code": "ATC", "timezone": "America/Nassau", "gmt": "-5", "geoname_id": null, "country_iso2": "BS"}, {"longitude": "161.03334", "city_name": "Atoifi", "latitude": "-8.866667", "iata_code": "ATD", "timezone": "Pacific/Guadalcanal", "gmt": "11", "geoname_id": null, "country_iso2": "SB"}, {"longitude": "-95.61667", "city_name": "Antlers", "latitude": "34.233334", "iata_code": "ATE", "timezone": "America/Chicago", "gmt": "-6", "geoname_id": "4542367", "country_iso2": "US"}, {"longitude": "-78.7", "city_name": "Ambato", "latitude": "-1.083333", "iata_code": "ATF", "timezone": "America/Guayaquil", "gmt": "-5", "geoname_id": "3660689", "country_iso2": "EC"}, {"longitude": "72.25", "city_name": "Attock", "latitude": "33.9", "iata_code": "ATG", "timezone": "Asia/Karachi", "gmt": "5", "geoname_id": null, "country_iso2": "PK"}, {"longitude": "23.946486", "city_name": "Athens", "latitude": "37.93635", "iata_code": "ATH", "timezone": "Europe/Athens", "gmt": "2", "geoname_id": "264371", "country_iso2": "GR"}, {"longitude": "-56.50833", "city_name": "Artigas", "latitude": "-30.4", "iata_code": "ATI", "timezone": "America/Montevideo", "gmt": "-3", "geoname_id": "3443758", "country_iso2": "UY"}], [{"longitude": "47.016666", "city_name": "Antsirabe", "latitude": "-19.85", "iata_code": "ATJ", "timezone": "Indian/Antananarivo", "gmt": "3", "geoname_id": null, "country_iso2": "MG"}, {"longitude": "-157.33333", "city_name": "Atqasuk", "latitude": "70.5", "iata_code": "ATK", "timezone": "America/Anchorage", "gmt": "-9", "geoname_id": "5879756", "country_iso2": "US"}, {"longitude": "-84.387982", "city_name": "Atlanta", "latitude": "33.748995", "iata_code": "ATL", "timezone": "America/New_York", "gmt": "-5", "geoname_id": "4180439", "country_iso2": "US"}, {"longitude": "-52.216667", "city_name": "Altamira", "latitude": "-3.2", "iata_code": "ATM", "timezone": "America/Santarem", "gmt": "-3", "geoname_id": "3407882", "country_iso2": "BR"}, {"longitude": "152.46666", "city_name": "Namatanai", "latitude": "-3.666667", "iata_code": "ATN", "timezone": "Pacific/Port_Moresby", "gmt": "10", "geoname_id": "2093685", "country_iso2": "PG"}, {"longitude": "-82.1", "city_name": "Athens", "latitude": "39.333332", "iata_code": "ATO", "timezone": "America/New_York", "gmt": "-5", "geoname_id": null, "country_iso2": "US"}, {"longitude": "142.28334", "city_name": "Aitape", "latitude": "-3.166667", "iata_code": "ATP", "timezone": "Pacific/Port_Moresby", "gmt": "10", "geoname_id": null, "country_iso2": "PG"}, {"longitude": "74.8073", "city_name": "Amritsar", "latitude": "31.706741", "iata_code": "ATQ", "timezone": "Asia/Kolkata", "gmt": "5.30", "geoname_id": "1278710", "country_iso2": "IN"}, {"longitude": "-13.046389", "city_name": "Atar", "latitude": "20.499443", "iata_code": "ATR", "timezone": "Africa/Nouakchott", "gmt": null, "geoname_id": null, "country_iso2": "MR"}, {"longitude": "-104.46694", "city_name": "Artesia", "latitude": "32.84833", "iata_code": "ATS", "timezone": "America/Denver", "gmt": "-7", "geoname_id": "5488441", "country_iso2": "US"}, {"longitude": "-162.2675", "city_name": "Atmautluak", "latitude": "60.866943", "iata_code": "ATT", "timezone": "America/Nome", "gmt": "-9", "geoname_id": "5879749", "country_iso2": "US"}, {"longitude": "173.17278", "city_name": "Attu Island", "latitude": "52.825832", "iata_code": "ATU", "timezone": "America/Adak", "gmt": "-10", "geoname_id": null, "country_iso2": "US"}, {"longitude": "18.3075", "city_name": "Ati", "latitude": "13.242222", "iata_code": "ATV", "timezone": "Africa/Ndjamena", "gmt": "1", "geoname_id": "2436400", "country_iso2": "TD"}, {"longitude": "-88.50994", "city_name": "Appleton", "latitude": "44.26011", "iata_code": "ATW", "timezone": "America/Chicago", "gmt": "-6", "geoname_id": "5244080", "country_iso2": "US"}, {"longitude": "68.4", "city_name": "Atbasar", "latitude": "51.88333", "iata_code": "ATX", "timezone": "Asia/Almaty", "gmt": "6", "geoname_id": null, "country_iso2": "KZ"}, {"longitude": "-97.15417", "city_name": "Watertown", "latitude": "44.90889", "iata_code": "ATY", "timezone": "America/Chicago", "gmt": "-6", "geoname_id": "5232741", "country_iso2": "US"}, {"longitude": "31", "city_name": "Assiut", "latitude": "27.033333", "iata_code": "ATZ", "timezone": "Africa/Cairo", "gmt": "2", "geoname_id": null, "country_iso2": "EG"}, {"longitude": "-70.013885", "city_name": "Aruba", "latitude": "12.502222", "iata_code": "AUA", "timezone": "America/Aruba", "gmt": "-4", "geoname_id": "3577152", "country_iso2": "AW"}, {"longitude": "-63.35", "city_name": "Itauba", "latitude": "-5.766667", "iata_code": "AUB", "timezone": "America/Cuiaba", "gmt": "-4", "geoname_id": null, "country_iso2": "BR"}, {"longitude": "-70.7425", "city_name": "Arauca", "latitude": "7.071667", "iata_code": "AUC", "timezone": "America/Bogota", "gmt": "-5", "geoname_id": "3689718", "country_iso2": "CO"}, {"longitude": "139.88167", "city_name": "Augustus Downs", "latitude": "-18.506945", "iata_code": "AUD", "timezone": "Australia/Brisbane", "gmt": "10", "geoname_id": null, "country_iso2": "AU"}, {"longitude": "33.183334", "city_name": "Abu Rudeis", "latitude": "28.9", "iata_code": "AUE", "timezone": "Africa/Cairo", "gmt": "2", "geoname_id": null, "country_iso2": "EG"}, {"longitude": "3.5", "city_name": "Auxerre", "latitude": "47.85", "iata_code": "AUF", "timezone": "Europe/Paris", "gmt": "1", "geoname_id": "3035843", "country_iso2": "FR"}, {"longitude": "-69.79667", "city_name": "Augusta", "latitude": "44.318054", "iata_code": "AUG", "timezone": "America/New_York", "gmt": "-5", "geoname_id": "4957003", "country_iso2": "US"}, {"longitude": "54.366667", "city_name": "Abu Dhabi", "latitude": "24.466667", "iata_code": "AUH", "timezone": "Asia/Dubai", "gmt": "4", "geoname_id": "292968", "country_iso2": "AE"}, {"longitude": "143.075", "city_name": "Aua Island", "latitude": "-1.458333", "iata_code": "AUI", "timezone": "Pacific/Port_Moresby", "gmt": "10", "geoname_id": null, "country_iso2": "PG"}, {"longitude": "142.85", "city_name": "Ambunti", "latitude": "-4.25", "iata_code": "AUJ", "timezone": "Pacific/Port_Moresby", "gmt": "10", "geoname_id": "2100933", "country_iso2": "PG"}, {"longitude": "-164.61084", "city_name": "Alakanuk", "latitude": "62.689167", "iata_code": "AUK", "timezone": "America/Nome", "gmt": "-9", "geoname_id": "5879057", "country_iso2": "US"}, {"longitude": "171.16667", "city_name": "Aur Island", "latitude": "8.133333", "iata_code": "AUL", "timezone": "Pacific/Majuro", "gmt": "12", "geoname_id": null, "country_iso2": "MH"}, {"longitude": "-92.98333", "city_name": "Austin", "latitude": "43.666668", "iata_code": "AUM", "timezone": "America/Chicago", "gmt": "-6", "geoname_id": "5016884", "country_iso2": "US"}, {"longitude": "-121.066666", "city_name": "Auburn", "latitude": "38.9", "iata_code": "AUN", "timezone": "America/Los_Angeles", "gmt": "-8", "geoname_id": "5389489", "country_iso2": "US"}, {"longitude": "-85.5", "city_name": "Auburn", "latitude": "32.63333", "iata_code": "AUO", "timezone": "America/Chicago", "gmt": "-6", "geoname_id": "4081644", "country_iso2": "US"}, {"longitude": "149.58333", "city_name": "Agaun", "latitude": "-9.983333", "iata_code": "AUP", "timezone": "Pacific/Port_Moresby", "gmt": "10", "geoname_id": "2085070", "country_iso2": "PG"}, {"longitude": "-139.00978", "city_name": "Atuona", "latitude": "-9.769324", "iata_code": "AUQ", "timezone": "Pacific/Marquesas", "gmt": "-9:30", "geoname_id": "4020109", "country_iso2": "PF"}, {"longitude": "2.418056", "city_name": "Aurillac", "latitude": "44.8975", "iata_code": "AUR", "timezone": "Europe/Paris", "gmt": "1", "geoname_id": "3036016", "country_iso2": "FR"}, {"longitude": "-97.743061", "city_name": "Austin", "latitude": "30.267153", "iata_code": "AUS", "timezone": "America/Chicago", "gmt": "-6", "geoname_id": "4671654", "country_iso2": "US"}, {"longitude": "125.583336", "city_name": "Atauro", "latitude": "-8.216667", "iata_code": "AUT", "timezone": "Asia/Dili", "gmt": "9", "geoname_id": "1645457", "country_iso2": "ID"}, {"longitude": "142.25", "city_name": "Aurukun Mission", "latitude": "-13.166667", "iata_code": "AUU", "timezone": "Australia/Brisbane", "gmt": "10", "geoname_id": "2144209", "country_iso2": "AU"}, {"longitude": "148.43333", "city_name": "Aumo", "latitude": "-5.716667", "iata_code": "AUV", "timezone": "Pacific/Port_Moresby", "gmt": "10", "geoname_id": null, "country_iso2": "PG"}, {"longitude": "-89.623055", "city_name": "Wausau", "latitude": "44.923332", "iata_code": "AUW", "timezone": "America/Chicago", "gmt": "-6", "geoname_id": "5278131", "country_iso2": "US"}, {"longitude": "-48.2", "city_name": "Araguaina", "latitude": "-7.2", "iata_code": "AUX", "timezone": "America/Araguaina", "gmt": "-3", "geoname_id": "3407357", "country_iso2": "BR"}, {"longitude": "169.66667", "city_name": "Aneityum", "latitude": "-20.333332", "iata_code": "AUY", "timezone": "Pacific/Efate", "gmt": "11", "geoname_id": "2136499", "country_iso2": "VU"}, {"longitude": "-88.316666", "city_name": "Aurora", "latitude": "41.75", "iata_code": "AUZ", "timezone": "America/Chicago", "gmt": "-6", "geoname_id": "4887398", "country_iso2": "US"}, {"longitude": "105.87278", "city_name": "An Shun", "latitude": "26.257221", "iata_code": "AVA", "timezone": "Asia/Chongqing", "gmt": "8", "geoname_id": "1809461", "country_iso2": "CN"}, {"longitude": "12.6", "city_name": "Aviano", "latitude": "46.033333", "iata_code": "AVB", "timezone": "Europe/Rome", "gmt": "1", "geoname_id": "3164603", "country_iso2": "IT"}, {"longitude": "130.01666", "city_name": "Auvergne", "latitude": "-15.65", "iata_code": "AVG", "timezone": "Australia/Darwin", "gmt": "9.30", "geoname_id": null, "country_iso2": "AU"}, {"longitude": "-78.79139", "city_name": "Ciego De Avila", "latitude": "22.025", "iata_code": "AVI", "timezone": "America/Havana", "gmt": "-5", "geoname_id": null, "country_iso2": "CU"}, {"longitude": "102.78333", "city_name": "Arvaikheer", "latitude": "46.266666", "iata_code": "AVK", "timezone": "Asia/Ulaanbaatar", "gmt": "8", "geoname_id": null, "country_iso2": "MN"}, {"longitude": "-82.537315", "city_name": "Fletcher", "latitude": "35.43508", "iata_code": "AVL", "timezone": "America/New_York", "gmt": "-5", "geoname_id": "4453066", "country_iso2": "US"}, {"longitude": "4.805528", "city_name": "Avignon", "latitude": "43.949317", "iata_code": "AVN", "timezone": "Europe/Paris", "gmt": "1", "geoname_id": "3035681", "country_iso2": "FR"}, {"longitude": "-81.51667", "city_name": "Avon Park", "latitude": "27.6", "iata_code": "AVO", "timezone": "America/New_York", "gmt": "-5", "geoname_id": "4160983", "country_iso2": "US"}, {"longitude": "-75.881308", "city_name": "Wilkes-Barre", "latitude": "41.245915", "iata_code": "AVP", "timezone": "America/New_York", "gmt": "-5", "geoname_id": "5219488", "country_iso2": "US"}, {"longitude": "160.38333", "city_name": "Avu Avu", "latitude": "-9.833333", "iata_code": "AVU", "timezone": "Pacific/Guadalcanal", "gmt": "11", "geoname_id": "2109675", "country_iso2": "SB"}, {"longitude": "-118.327778", "city_name": "Avalon", "latitude": "33.340833", "iata_code": "AVX", "timezone": "America/Los_Angeles", "gmt": "-8", "geoname_id": "5368361", "country_iso2": "US"}, {"longitude": "38.4875", "city_name": "Awassa", "latitude": "7.061111", "iata_code": "AWA", "timezone": "Africa/Addis_Ababa", "gmt": "3", "geoname_id": null, "country_iso2": "ET"}, {"longitude": "142.75", "city_name": "Awaba", "latitude": "-8.016667", "iata_code": "AWB", "timezone": "Pacific/Port_Moresby", "gmt": "10", "geoname_id": null, "country_iso2": "PG"}, {"longitude": "169.5", "city_name": "Aniwa", "latitude": "-19.25", "iata_code": "AWD", "timezone": "Pacific/Efate", "gmt": "11", "geoname_id": "2136256", "country_iso2": "VU"}, {"longitude": "9.45", "city_name": "Alowe", "latitude": "-0.75", "iata_code": "AWE", "timezone": "Africa/Libreville", "gmt": "1", "geoname_id": null, "country_iso2": "GA"}, {"longitude": "166.63333", "city_name": "Wake Island", "latitude": "19.283333", "iata_code": "AWK", "timezone": "Pacific/Wake", "gmt": "12", "geoname_id": null, "country_iso2": "UM"}, {"longitude": "-90.183334", "city_name": "West Memphis", "latitude": "35.13333", "iata_code": "AWM", "timezone": "America/Chicago", "gmt": "-6", "geoname_id": "4641239", "country_iso2": "US"}, {"longitude": "138.66667", "city_name": "Alton Downs", "latitude": "-26.25", "iata_code": "AWN", "timezone": "Australia/Adelaide", "gmt": "9.30", "geoname_id": null, "country_iso2": "AU"}, {"longitude": "137.75", "city_name": "Austral Downs", "latitude": "-20.5", "iata_code": "AWP", "timezone": "Australia/Darwin", "gmt": "9.30", "geoname_id": null, "country_iso2": "AU"}, {"longitude": "144.87029", "city_name": "Awar", "latitude": "-4.124167", "iata_code": "AWR", "timezone": "Pacific/Port_Moresby", "gmt": "10", "geoname_id": null, "country_iso2": "PG"}, {"longitude": "48.74668", "city_name": "Ahwaz", "latitude": "31.34292", "iata_code": "AWZ", "timezone": "Asia/Tehran", "gmt": "3.30", "geoname_id": null, "country_iso2": "IR"}, {"longitude": "-63.066666", "city_name": "Anguilla", "latitude": "18.216667", "iata_code": "AXA", "timezone": "America/Anguilla", "gmt": "-4", "geoname_id": "3573374", "country_iso2": "AI"}, {"longitude": "-75.90139", "city_name": "Alexandria Bay", "latitude": "44.2525", "iata_code": "AXB", "timezone": "America/New_York", "gmt": "-5", "geoname_id": "5106950", "country_iso2": "US"}, {"longitude": "145.2425", "city_name": "Aramac", "latitude": "-22.958055", "iata_code": "AXC", "timezone": "Australia/Brisbane", "gmt": "10", "geoname_id": null, "country_iso2": "AU"}, {"longitude": "25.944893", "city_name": "Alexandroupolis", "latitude": "40.856785", "iata_code": "AXD", "timezone": "Europe/Athens", "gmt": "2", "geoname_id": "736928", "country_iso2": "GR"}, {"longitude": "-52.38333", "city_name": "Xanxere", "latitude": "-26.883333", "iata_code": "AXE", "timezone": "America/Sao_Paulo", "gmt": "-3", "geoname_id": "3466296", "country_iso2": "BR"}, {"longitude": "-94.23333", "city_name": "Algona", "latitude": "43.066666", "iata_code": "AXG", "timezone": "America/Chicago", "gmt": "-6", "geoname_id": "4866445", "country_iso2": "US"}, {"longitude": "46.3", "city_name": "Ataq", "latitude": "13.866667", "iata_code": "AXK", "timezone": "Asia/Aden", "gmt": "3", "geoname_id": null, "country_iso2": "YE"}, {"longitude": "136.66667", "city_name": "Alexandria", "latitude": "-19.083332", "iata_code": "AXL", "timezone": "Australia/Darwin", "gmt": "9.30", "geoname_id": null, "country_iso2": "AU"}, {"longitude": "-75.76804", "city_name": "Armenia", "latitude": "4.452869", "iata_code": "AXM", "timezone": "America/Bogota", "gmt": "-5", "geoname_id": "3689560", "country_iso2": "CO"}, {"longitude": "-95.394165", "city_name": "Alexandria", "latitude": "45.86722", "iata_code": "AXN", "timezone": "America/Chicago", "gmt": "-6", "geoname_id": "5016108", "country_iso2": "US"}, {"longitude": "-73.96667", "city_name": "Spring Point", "latitude": "22.45", "iata_code": "AXP", "timezone": "America/Nassau", "gmt": "-5", "geoname_id": "3571370", "country_iso2": "BS"}, {"longitude": "-146.75", "city_name": "Arutua", "latitude": "-15.25", "iata_code": "AXR", "timezone": "Pacific/Tahiti", "gmt": "-10", "geoname_id": null, "country_iso2": "PF"}, {"longitude": "140.22015", "city_name": "Akita", "latitude": "39.61177", "iata_code": "AXT", "timezone": "Asia/Tokyo", "gmt": "9", "geoname_id": "2113719", "country_iso2": "JP"}, {"longitude": "38.716667", "city_name": "Axum", "latitude": "14.120833", "iata_code": "AXU", "timezone": "Africa/Addis_Ababa", "gmt": "3", "geoname_id": null, "country_iso2": "ET"}, {"longitude": "-84.2", "city_name": "Wapakoneta", "latitude": "40.566666", "iata_code": "AXV", "timezone": "America/New_York", "gmt": "-5", "geoname_id": "5175670", "country_iso2": "US"}, {"longitude": "-105.28333", "city_name": "Angel Fire", "latitude": "36.416668", "iata_code": "AXX", "timezone": "America/Denver", "gmt": "-7", "geoname_id": "5455214", "country_iso2": "US"}, {"longitude": "-75.15", "city_name": "Ayapel", "latitude": "8.316667", "iata_code": "AYA", "timezone": "America/Bogota", "gmt": "-5", "geoname_id": "3689381", "country_iso2": "CO"}, {"longitude": "-73.61667", "city_name": "Ayacucho", "latitude": "8.6", "iata_code": "AYC", "timezone": "America/Bogota", "gmt": "-5", "geoname_id": "3690465", "country_iso2": "CO"}, {"longitude": "135.95", "city_name": "Alroy Downs", "latitude": "-19.3", "iata_code": "AYD", "timezone": "Australia/Darwin", "gmt": "9.30", "geoname_id": null, "country_iso2": "AU"}, {"longitude": "-71.6", "city_name": "Fort Devens", "latitude": "42.55", "iata_code": "AYE", "timezone": "America/New_York", "gmt": "-5", "geoname_id": "7257567", "country_iso2": "US"}, {"longitude": "-73.933334", "city_name": "Yaguara", "latitude": "1.533333", "iata_code": "AYG", "timezone": "America/Bogota", "gmt": "-5", "geoname_id": null, "country_iso2": "CO"}, {"longitude": "-72.333336", "city_name": "Yari", "latitude": "-0.333333", "iata_code": "AYI", "timezone": "America/Bogota", "gmt": "-5", "geoname_id": "3665757", "country_iso2": "CO"}, {"longitude": "66.96667", "city_name": "Arkalyk", "latitude": "50.316666", "iata_code": "AYK", "timezone": "Asia/Almaty", "gmt": "6", "geoname_id": null, "country_iso2": "KZ"}, {"longitude": "135.53334", "city_name": "Anthony Lagoon", "latitude": "-18.033333", "iata_code": "AYL", "timezone": "Australia/Darwin", "gmt": "9.30", "geoname_id": null, "country_iso2": "AU"}, {"longitude": "114.35", "city_name": "Anyang", "latitude": "36.1", "iata_code": "AYN", "timezone": "Asia/Shanghai", "gmt": "8", "geoname_id": "1785294", "country_iso2": "CN"}, {"longitude": "-56.85", "city_name": "Ayolas", "latitude": "-27.366667", "iata_code": "AYO", "timezone": "America/Asuncion", "gmt": "-4", "geoname_id": "3439378", "country_iso2": "PY"}, {"longitude": "-74.24722", "city_name": "Ayacucho", "latitude": "-13.197222", "iata_code": "AYP", "timezone": "America/Lima", "gmt": "-5", "geoname_id": "3947019", "country_iso2": "PE"}, {"longitude": "130.97658", "city_name": "Ayers Rock", "latitude": "-25.190878", "iata_code": "AYQ", "timezone": "Australia/Darwin", "gmt": "9.30", "geoname_id": null, "country_iso2": "AU"}, {"longitude": "147.32445", "city_name": "Ayr", "latitude": "-19.596666", "iata_code": "AYR", "timezone": "Australia/Brisbane", "gmt": "10", "geoname_id": "2146142", "country_iso2": "AU"}, {"longitude": "-82.39667", "city_name": "Waycross", "latitude": "31.248611", "iata_code": "AYS", "timezone": "America/New_York", "gmt": "-5", "geoname_id": "4229763", "country_iso2": "US"}, {"longitude": "30.80135", "city_name": "Antalya", "latitude": "36.89928", "iata_code": "AYT", "timezone": "Europe/Istanbul", "gmt": "3", "geoname_id": "323777", "country_iso2": "TR"}, {"longitude": "145.9", "city_name": "Aiyura", "latitude": "-6.333333", "iata_code": "AYU", "timezone": "Pacific/Port_Moresby", "gmt": "10", "geoname_id": null, "country_iso2": "PG"}, {"longitude": "132.5", "city_name": "Ayawasi", "latitude": "-1.2", "iata_code": "AYW", "timezone": "Asia/Jayapura", "gmt": "9", "geoname_id": null, "country_iso2": "ID"}, {"longitude": "81.8311", "city_name": "Pothuvil", "latitude": "6.855", "iata_code": "AYY", "timezone": "Asia/Colombo", "gmt": "5.30", "geoname_id": "1226371", "country_iso2": "LK"}, {"longitude": "-73.416664", "city_name": "Amityville", "latitude": "40.666668", "iata_code": "AYZ", "timezone": "America/New_York", "gmt": "-5", "geoname_id": null, "country_iso2": "US"}, {"longitude": "148.81667", "city_name": "Amazon Bay", "latitude": "-10.15", "iata_code": "AZB", "timezone": "Pacific/Port_Moresby", "gmt": "10", "geoname_id": null, "country_iso2": "PG"}], [{"longitude": "54.283264", "city_name": "Yazd", "latitude": "31.903603", "iata_code": "AZD", "timezone": "Asia/Tehran", "gmt": "3.30", "geoname_id": "111822", "country_iso2": "IR"}, {"longitude": "-102.352776", "city_name": "Apatzingan", "latitude": "19.068056", "iata_code": "AZG", "timezone": "America/Mexico_City", "gmt": "-6", "geoname_id": null, "country_iso2": "MX"}, {"longitude": "-58.85", "city_name": "Sapezal", "latitude": "-13.47", "iata_code": "AZL", "timezone": "America/Cuiaba", "gmt": "-4", "geoname_id": null, "country_iso2": "BR"}, {"longitude": "72.3", "city_name": "Andizhan", "latitude": "40.733334", "iata_code": "AZN", "timezone": "Asia/Tashkent", "gmt": "5", "geoname_id": null, "country_iso2": "UZ"}, {"longitude": "-85.55656", "city_name": "Kalamazoo", "latitude": "42.239964", "iata_code": "AZO", "timezone": "America/Detroit", "gmt": "-5", "geoname_id": "4997787", "country_iso2": "US"}, {"longitude": "-0.283333", "city_name": "Adrar", "latitude": "27.883333", "iata_code": "AZR", "timezone": "Africa/Algiers", "gmt": "1", "geoname_id": null, "country_iso2": "DZ"}, {"longitude": "-69.736946", "city_name": "El Catey", "latitude": "19.270555", "iata_code": "AZS", "timezone": "America/Santo_Domingo", "gmt": "-4", "geoname_id": "3500243", "country_iso2": "DO"}, {"longitude": "-73.25", "city_name": "Zapatoca", "latitude": "6.866667", "iata_code": "AZT", "timezone": "America/Bogota", "gmt": "-5", "geoname_id": "3665587", "country_iso2": "CO"}, {"longitude": "13.15", "city_name": "Ambriz", "latitude": "-7.883333", "iata_code": "AZZ", "timezone": "Africa/Luanda", "gmt": "1", "geoname_id": null, "country_iso2": "AO"}, {"longitude": "151.03334", "city_name": "Bialla", "latitude": "-5.316667", "iata_code": "BAA", "timezone": "Pacific/Port_Moresby", "gmt": "10", "geoname_id": null, "country_iso2": "PG"}, {"longitude": "-72.96667", "city_name": "Barranca De Upia", "latitude": "4.583333", "iata_code": "BAC", "timezone": "America/Bogota", "gmt": "-5", "geoname_id": "3665900", "country_iso2": "CO"}, {"longitude": "6.666667", "city_name": "Barcelonnette", "latitude": "44.38333", "iata_code": "BAE", "timezone": "Europe/Paris", "gmt": "1", "geoname_id": "2990440", "country_iso2": "FR"}, {"longitude": "-72.75", "city_name": "Westfield", "latitude": "42.13333", "iata_code": "BAF", "timezone": "America/New_York", "gmt": "-5", "geoname_id": "4939783", "country_iso2": "US"}, {"longitude": "120.617775", "city_name": "Baguio", "latitude": "16.376667", "iata_code": "BAG", "timezone": "Asia/Manila", "gmt": "8", "geoname_id": "1728930", "country_iso2": "PH"}, {"longitude": "50.62605", "city_name": "Manama", "latitude": "26.26918", "iata_code": "BAH", "timezone": "Asia/Bahrain", "gmt": "3", "geoname_id": "290340", "country_iso2": "BH"}, {"longitude": "-83.333336", "city_name": "Buenos Aires", "latitude": "9.166667", "iata_code": "BAI", "timezone": "America/Costa_Rica", "gmt": "-6", "geoname_id": "3625016", "country_iso2": "CR"}, {"longitude": "149.13333", "city_name": "Bali", "latitude": "-4.833333", "iata_code": "BAJ", "timezone": "Pacific/Port_Moresby", "gmt": "10", "geoname_id": null, "country_iso2": "PG"}, {"longitude": "49.867623", "city_name": "Baku", "latitude": "40.43495", "iata_code": "BAK", "timezone": "Asia/Baku", "gmt": "4", "geoname_id": "587084", "country_iso2": "AZ"}, {"longitude": "41.083332", "city_name": "Batman", "latitude": "37.916668", "iata_code": "BAL", "timezone": "Europe/Istanbul", "gmt": "3", "geoname_id": "321836", "country_iso2": "TR"}, {"longitude": "-116.933334", "city_name": "Battle Mountain", "latitude": "40.63333", "iata_code": "BAM", "timezone": "America/Los_Angeles", "gmt": "-8", "geoname_id": "5703670", "country_iso2": "US"}, {"longitude": "20.428057", "city_name": "Basongo", "latitude": "-4.313333", "iata_code": "BAN", "timezone": "Africa/Lubumbashi", "gmt": "2", "geoname_id": null, "country_iso2": "CD"}, {"longitude": "102.79278", "city_name": "Ban Mak Khaen", "latitude": "17.385", "iata_code": "BAO", "timezone": "Asia/Bangkok", "gmt": "7", "geoname_id": null, "country_iso2": "TH"}, {"longitude": "149.75", "city_name": "Baibara", "latitude": "-10.333333", "iata_code": "BAP", "timezone": "Pacific/Port_Moresby", "gmt": "10", "geoname_id": null, "country_iso2": "PG"}, {"longitude": "-74.77618", "city_name": "Barranquilla", "latitude": "10.886398", "iata_code": "BAQ", "timezone": "America/Bogota", "gmt": "-5", "geoname_id": "3689147", "country_iso2": "CO"}, {"longitude": "-133.6", "city_name": "Baker Island", "latitude": "55.333332", "iata_code": "BAR", "timezone": "America/Sitka", "gmt": "-9", "geoname_id": null, "country_iso2": "US"}, {"longitude": "155.88333", "city_name": "Balalae", "latitude": "-6.983333", "iata_code": "BAS", "timezone": "Pacific/Guadalcanal", "gmt": "11", "geoname_id": null, "country_iso2": "SB"}, {"longitude": "-48.55", "city_name": "Barretos", "latitude": "-20.55", "iata_code": "BAT", "timezone": "America/Sao_Paulo", "gmt": "-3", "geoname_id": "3470451", "country_iso2": "BR"}, {"longitude": "110.0009", "city_name": "Baotou", "latitude": "40.563328", "iata_code": "BAV", "timezone": "Asia/Shanghai", "gmt": "8", "geoname_id": "2038432", "country_iso2": "CN"}, {"longitude": "146.35", "city_name": "Biawonque", "latitude": "-0.666667", "iata_code": "BAW", "timezone": "Africa/Libreville", "gmt": "1", "geoname_id": null, "country_iso2": "GA"}, {"longitude": "83.547646", "city_name": "Barnaul", "latitude": "53.361088", "iata_code": "BAX", "timezone": "Asia/Omsk", "gmt": "6", "geoname_id": "1510853", "country_iso2": "RU"}, {"longitude": "23.466667", "city_name": "Baia Mare", "latitude": "47.65", "iata_code": "BAY", "timezone": "Europe/Bucharest", "gmt": "2", "geoname_id": "685826", "country_iso2": "RO"}, {"longitude": "-62.933613", "city_name": "Barbelos", "latitude": "-0.966944", "iata_code": "BAZ", "timezone": "America/Manaus", "gmt": "-4", "geoname_id": null, "country_iso2": "BR"}, {"longitude": "-71.695", "city_name": "Balmaceda", "latitude": "-45.916668", "iata_code": "BBA", "timezone": "America/Santiago", "gmt": "-4", "geoname_id": "3898880", "country_iso2": "CL"}, {"longitude": "-95.6", "city_name": "Benson", "latitude": "45.316666", "iata_code": "BBB", "timezone": "America/Chicago", "gmt": "-6", "geoname_id": "5016108", "country_iso2": "US"}, {"longitude": "-95.96667", "city_name": "Bay City", "latitude": "28.983334", "iata_code": "BBC", "timezone": "America/Chicago", "gmt": "-6", "geoname_id": "4829307", "country_iso2": "US"}, {"longitude": "-99.333336", "city_name": "Brady", "latitude": "31.133333", "iata_code": "BBD", "timezone": "America/Chicago", "gmt": "-6", "geoname_id": "4676798", "country_iso2": "US"}, {"longitude": "-71.183334", "city_name": "Burlington", "latitude": "42.5", "iata_code": "BBF", "timezone": "America/New_York", "gmt": "-5", "geoname_id": null, "country_iso2": "US"}, {"longitude": "172.75", "city_name": "Butaritari", "latitude": "3.166667", "iata_code": "BBG", "timezone": "Pacific/Tarawa", "gmt": "12", "geoname_id": null, "country_iso2": "KI"}, {"longitude": "12.72492", "city_name": "Barth", "latitude": "54.363077", "iata_code": "BBH", "timezone": "Europe/Berlin", "gmt": "1", "geoname_id": "2826287", "country_iso2": "DE"},